{
"type": "FeatureCollection",
"name": "greggs-11-may-2025",
"crs": { "type": "name", "properties": { "name": "urn:ogc:def:crs:OGC:1.3:CRS84" } },
"features": [
{ "type": "Feature", "properties": { "shopCode": 2397, "shopName": "Bargoed, U5 The Plateau", "priceListId": 10, "address.houseNumberOrName": "U5", "address.streetName": "The Plateau", "address.city": "Bargoed", "address.postCode": "CF81 8QT", "address.country": "GB", "address.longitude": -3.228920986, "address.latitude": 51.68821777, "address.phoneNumber": "01443583543" }, "geometry": { "type": "Point", "coordinates": [ -3.228920986, 51.68821777 ] } },
{ "type": "Feature", "properties": { "shopCode": 315, "shopName": "Rotherham, 2 Effingham St", "priceListId": 10, "address.houseNumberOrName": null, "address.streetName": "2/6 Effingham Street", "address.city": "Rotherham", "address.postCode": "S65 1AJ", "address.country": "GB", "address.longitude": -1.355389076, "address.latitude": 53.43163122, "address.phoneNumber": "01709222872" }, "geometry": { "type": "Point", "coordinates": [ -1.355389076, 53.43163122 ] } },
{ "type": "Feature", "properties": { "shopCode": 527, "shopName": "Nottingham, U32 Victoria CTR", "priceListId": 10, "address.houseNumberOrName": "U32 Victoria Centre", "address.streetName": "Lower Parliament Street", "address.city": "Nottingham", "address.postCode": "NG1 3QE", "address.country": "GB", "address.longitude": -1.1471379, "address.latitude": 52.95630032, "address.phoneNumber": "01158226079" }, "geometry": { "type": "Point", "coordinates": [ -1.1471379, 52.95630032 ] } },
{ "type": "Feature", "properties": { "shopCode": 1196, "shopName": "Birmingham, 85 New St", "priceListId": 10, "address.houseNumberOrName": null, "address.streetName": "85 New Street", "address.city": "Birmingham", "address.postCode": "B2 4BA", "address.country": "GB", "address.longitude": -1.901779855, "address.latitude": 52.47933868, "address.phoneNumber": "01216612698" }, "geometry": { "type": "Point", "coordinates": [ -1.901779855, 52.47933868 ] } },
{ "type": "Feature", "properties": { "shopCode": 1359, "shopName": "Birmingham, U38 Great Western Arc", "priceListId": 10, "address.houseNumberOrName": null, "address.streetName": "37/38 Great Western Arcade", "address.city": "Birmingham", "address.postCode": "B2 5HU", "address.country": "GB", "address.longitude": -1.897458586, "address.latitude": 52.48194607, "address.phoneNumber": "01216612552" }, "geometry": { "type": "Point", "coordinates": [ -1.897458586, 52.48194607 ] } },
{ "type": "Feature", "properties": { "shopCode": 1521, "shopName": "Bletchley, 108 Queensway", "priceListId": 10, "address.houseNumberOrName": null, "address.streetName": "108 Queensway", "address.city": "Bletchley", "address.postCode": "MK2 2RU", "address.country": "GB", "address.longitude": -0.730978591, "address.latitude": 51.99442495, "address.phoneNumber": "01908015396" }, "geometry": { "type": "Point", "coordinates": [ -0.730978591, 51.99442495 ] } },
{ "type": "Feature", "properties": { "shopCode": 2035, "shopName": "Rushden, 40 High St", "priceListId": 10, "address.houseNumberOrName": null, "address.streetName": "40 High Street", "address.city": "Rushden", "address.postCode": "NN10 0PJ", "address.country": "GB", "address.longitude": -0.59765458, "address.latitude": 52.29045502, "address.phoneNumber": "01933421634" }, "geometry": { "type": "Point", "coordinates": [ -0.59765458, 52.29045502 ] } },
{ "type": "Feature", "properties": { "shopCode": 2210, "shopName": "Outlet: Leicester, 237C Uppingham Rd", "priceListId": 10, "address.houseNumberOrName": null, "address.streetName": "237C Uppingham Road", "address.city": "Leicester", "address.postCode": "LE5 4DG", "address.country": "GB", "address.longitude": -1.090438534, "address.latitude": 52.64205294, "address.phoneNumber": "01164785787" }, "geometry": { "type": "Point", "coordinates": [ -1.090438534, 52.64205294 ] } },
{ "type": "Feature", "properties": { "shopCode": 3580, "shopName": "Llanharan, U3 Bridgend Rd", "priceListId": 10, "address.houseNumberOrName": "U3", "address.streetName": "Bridgend Road", "address.city": "Llanharan", "address.postCode": "CF72 9RP", "address.country": "GB", "address.longitude": -3.451712793, "address.latitude": 51.53323664, "address.phoneNumber": "01443583531" }, "geometry": { "type": "Point", "coordinates": [ -3.451712793, 51.53323664 ] } },
{ "type": "Feature", "properties": { "shopCode": 103, "shopName": "Pennywell, 4 Pennywell SC", "priceListId": 10, "address.houseNumberOrName": "Pennywell Shopping Centre", "address.streetName": "4 Portsmouth Road", "address.city": "Pennywell", "address.postCode": "SR4 9AS", "address.country": "GB", "address.longitude": -1.439568304, "address.latitude": 54.89688646, "address.phoneNumber": "01915946784" }, "geometry": { "type": "Point", "coordinates": [ -1.439568304, 54.89688646 ] } },
{ "type": "Feature", "properties": { "shopCode": 164, "shopName": "Edinburgh, Davidson Mains, 21 Main St", "priceListId": 10, "address.houseNumberOrName": null, "address.streetName": "21 Main Street", "address.city": "Davidsons Mains", "address.postCode": "EH4 5BZ", "address.country": "GB", "address.longitude": -3.273863704, "address.latitude": 55.9655599, "address.phoneNumber": "01312873352" }, "geometry": { "type": "Point", "coordinates": [ -3.273863704, 55.9655599 ] } },
{ "type": "Feature", "properties": { "shopCode": 176, "shopName": "Edinburgh, U21 Westside Plaza SC", "priceListId": 10, "address.houseNumberOrName": "U21 Westside Plaza Shopping Centre", "address.streetName": "Upper Mall", "address.city": "Wester Hailes", "address.postCode": "EH14 2SW", "address.country": "GB", "address.longitude": -3.284870325, "address.latitude": 55.91537978, "address.phoneNumber": "01312873358" }, "geometry": { "type": "Point", "coordinates": [ -3.284870325, 55.91537978 ] } },
{ "type": "Feature", "properties": { "shopCode": 1508, "shopName": "Jarrow, U2 Bede IE", "priceListId": 10, "address.houseNumberOrName": "U2A Bede Trade Park", "address.streetName": "Abbots Way", "address.city": "Jarrow", "address.postCode": "NE32 3HE", "address.country": "GB", "address.longitude": -1.468569233, "address.latitude": 54.97670982, "address.phoneNumber": "01914066972" }, "geometry": { "type": "Point", "coordinates": [ -1.468569233, 54.97670982 ] } },
{ "type": "Feature", "properties": { "shopCode": 457, "shopName": "Balham, 141 Balham High Rd", "priceListId": 10, "address.houseNumberOrName": null, "address.streetName": "141 Balham High Road", "address.city": "Balham", "address.postCode": "SW12 9AU", "address.country": "GB", "address.longitude": -0.151739798, "address.latitude": 51.44442699, "address.phoneNumber": "02038898613" }, "geometry": { "type": "Point", "coordinates": [ -0.151739798, 51.44442699 ] } },
{ "type": "Feature", "properties": { "shopCode": 589, "shopName": "North Chingford, 25 Station Rd", "priceListId": 10, "address.houseNumberOrName": null, "address.streetName": "25 Station Road", "address.city": "North Chingford", "address.postCode": "E4 7BJ", "address.country": "GB", "address.longitude": 0.002907948, "address.latitude": 51.63111278, "address.phoneNumber": "02038898577" }, "geometry": { "type": "Point", "coordinates": [ 0.002907948, 51.63111278 ] } },
{ "type": "Feature", "properties": { "shopCode": 650, "shopName": "Crouch End, 29 The Broadway", "priceListId": 10, "address.houseNumberOrName": null, "address.streetName": "29 The Broadway", "address.city": "Crouch End", "address.postCode": "N8 8DU", "address.country": "GB", "address.longitude": -0.124013257, "address.latitude": 51.57932369, "address.phoneNumber": "02038898553" }, "geometry": { "type": "Point", "coordinates": [ -0.124013257, 51.57932369 ] } },
{ "type": "Feature", "properties": { "shopCode": 991, "shopName": "Notting Hill, 238 Portobello Rd", "priceListId": 10, "address.houseNumberOrName": null, "address.streetName": "238 Portobello Road", "address.city": "London", "address.postCode": "W11 1LJ", "address.country": "GB", "address.longitude": -0.206075, "address.latitude": 51.51748864, "address.phoneNumber": "02038898525" }, "geometry": { "type": "Point", "coordinates": [ -0.206075, 51.51748864 ] } },
{ "type": "Feature", "properties": { "shopCode": 1002, "shopName": "Mill Hill, 44 The Broadway", "priceListId": 10, "address.houseNumberOrName": null, "address.streetName": "44 The Broadway", "address.city": "Mill Hill", "address.postCode": "NW7 3LH", "address.country": "GB", "address.longitude": -0.24678583, "address.latitude": 51.61471267, "address.phoneNumber": "02038898674" }, "geometry": { "type": "Point", "coordinates": [ -0.24678583, 51.61471267 ] } },
{ "type": "Feature", "properties": { "shopCode": 1589, "shopName": "Parkstone, 332 Ashley Rd", "priceListId": 10, "address.houseNumberOrName": null, "address.streetName": "332 Ashley Road", "address.city": "Parkstone", "address.postCode": "BH14 9DF", "address.country": "GB", "address.longitude": -1.936199087, "address.latitude": 50.72878414, "address.phoneNumber": "01202120028" }, "geometry": { "type": "Point", "coordinates": [ -1.936199087, 50.72878414 ] } },
{ "type": "Feature", "properties": { "shopCode": 1622, "shopName": "Atherstone, 91 Long St", "priceListId": 10, "address.houseNumberOrName": null, "address.streetName": "91 Long Street", "address.city": "Atherstone", "address.postCode": "CV9 1BB", "address.country": "GB", "address.longitude": -1.54725053, "address.latitude": 52.57734146, "address.phoneNumber": "01827214976" }, "geometry": { "type": "Point", "coordinates": [ -1.54725053, 52.57734146 ] } },
{ "type": "Feature", "properties": { "shopCode": 1668, "shopName": "Leamington Spa, 19 The Parade", "priceListId": 10, "address.houseNumberOrName": null, "address.streetName": "19/21 The Parade", "address.city": "Leamington Spa", "address.postCode": "CV32 4DE", "address.country": "GB", "address.longitude": -1.535638379, "address.latitude": 52.2925701, "address.phoneNumber": "01926352026" }, "geometry": { "type": "Point", "coordinates": [ -1.535638379, 52.2925701 ] } },
{ "type": "Feature", "properties": { "shopCode": 5345, "shopName": "Stretford, U11 Trafford Ctr, Regent Cres", "priceListId": 10, "address.houseNumberOrName": "U11 Trafford Centre", "address.streetName": "Regent Crescent", "address.city": "Stretford", "address.postCode": "M17 8AA", "address.country": "GB", "address.longitude": -2.35093, "address.latitude": 53.46654, "address.phoneNumber": "01618419199" }, "geometry": { "type": "Point", "coordinates": [ -2.35093, 53.46654 ] } },
{ "type": "Feature", "properties": { "shopCode": 1991, "shopName": "Pencoed,15 Coychurch Rd", "priceListId": 10, "address.houseNumberOrName": "U2", "address.streetName": "15 Coychurch Road", "address.city": "Pencoed", "address.postCode": "CF35 5NH", "address.country": "GB", "address.longitude": -3.500646623, "address.latitude": 51.5225073, "address.phoneNumber": "01656334211" }, "geometry": { "type": "Point", "coordinates": [ -3.500646623, 51.5225073 ] } },
{ "type": "Feature", "properties": { "shopCode": 2093, "shopName": "Malvern, 326 Worcester Rd", "priceListId": 10, "address.houseNumberOrName": null, "address.streetName": "326 Worcester Road", "address.city": "Malvern", "address.postCode": "WR14 1BD", "address.country": "GB", "address.longitude": -2.303116786, "address.latitude": 52.13354812, "address.phoneNumber": "01684211178" }, "geometry": { "type": "Point", "coordinates": [ -2.303116786, 52.13354812 ] } },
{ "type": "Feature", "properties": { "shopCode": 3879, "shopName": "Carmarthen, U3 Parc Pensarn", "priceListId": 10, "address.houseNumberOrName": "U3 Parc Pensarn Retail Park", "address.streetName": null, "address.city": "Carmarthan", "address.postCode": "SA31 2BG", "address.country": "GB", "address.longitude": -4.307637395, "address.latitude": 51.85069102, "address.phoneNumber": "01267612646" }, "geometry": { "type": "Point", "coordinates": [ -4.307637395, 51.85069102 ] } },
{ "type": "Feature", "properties": { "shopCode": 4926, "shopName": "Penkridge, U11 Boscomoor SC", "priceListId": 10, "address.houseNumberOrName": "U11 Boscomoor Shopping Centre", "address.streetName": "Wolverhampton Road", "address.city": "Penkridge", "address.postCode": "ST19 5NS", "address.country": "GB", "address.longitude": -2.118909475, "address.latitude": 52.71686898, "address.phoneNumber": "01785331476" }, "geometry": { "type": "Point", "coordinates": [ -2.118909475, 52.71686898 ] } },
{ "type": "Feature", "properties": { "shopCode": 3539, "shopName": "Carlisle, U3 Globe Ln, The Lanes SC", "priceListId": 10, "address.houseNumberOrName": "The Lanes Shopping Centre", "address.streetName": "3 Globe Lane", "address.city": "Carlisle", "address.postCode": "CA3 8NX", "address.country": "GB", "address.longitude": -2.934924, "address.latitude": 54.895421, "address.phoneNumber": "01228582864" }, "geometry": { "type": "Point", "coordinates": [ -2.934924, 54.895421 ] } },
{ "type": "Feature", "properties": { "shopCode": 675, "shopName": "Harlow, 6 Bush Fair SC", "priceListId": 10, "address.houseNumberOrName": null, "address.streetName": "6 North House Bush Fair", "address.city": "Harlow", "address.postCode": "CM18 6PA", "address.country": "GB", "address.longitude": 0.112653588, "address.latitude": 51.7576611, "address.phoneNumber": "01279214454" }, "geometry": { "type": "Point", "coordinates": [ 0.112653588, 51.7576611 ] } },
{ "type": "Feature", "properties": { "shopCode": 924, "shopName": "Sheerness, 52 High St", "priceListId": 10, "address.houseNumberOrName": null, "address.streetName": "52/54 High Street", "address.city": "Sheerness", "address.postCode": "ME12 1NL", "address.country": "GB", "address.longitude": 0.76134058, "address.latitude": 51.44055044, "address.phoneNumber": "01795503553" }, "geometry": { "type": "Point", "coordinates": [ 0.76134058, 51.44055044 ] } },
{ "type": "Feature", "properties": { "shopCode": 1027, "shopName": "Thornton Heath, 758 London Rd", "priceListId": 10, "address.houseNumberOrName": null, "address.streetName": "758/768A London Road", "address.city": "Thornton Heath", "address.postCode": "CR7 6JA", "address.country": "GB", "address.longitude": -0.114027624, "address.latitude": 51.39383065, "address.phoneNumber": "02038898616" }, "geometry": { "type": "Point", "coordinates": [ -0.114027624, 51.39383065 ] } },
{ "type": "Feature", "properties": { "shopCode": 1761, "shopName": "Paulsgrove, 179 Allaway Ave", "priceListId": 10, "address.houseNumberOrName": null, "address.streetName": "179 Allaway Avenue", "address.city": "Paulsgrove", "address.postCode": "PO6 4HG", "address.country": "GB", "address.longitude": -1.094042909, "address.latitude": 50.84965028, "address.phoneNumber": "02392004609" }, "geometry": { "type": "Point", "coordinates": [ -1.094042909, 50.84965028 ] } },
{ "type": "Feature", "properties": { "shopCode": 1197, "shopName": "Hounslow, 181 High St", "priceListId": 10, "address.houseNumberOrName": null, "address.streetName": "181 High Street", "address.city": "Hounslow", "address.postCode": "TW3 1BL", "address.country": "GB", "address.longitude": -0.360991895, "address.latitude": 51.46901773, "address.phoneNumber": "02038898597" }, "geometry": { "type": "Point", "coordinates": [ -0.360991895, 51.46901773 ] } },
{ "type": "Feature", "properties": { "shopCode": 2222, "shopName": "Archway, 33 Junction Rd", "priceListId": 10, "address.houseNumberOrName": null, "address.streetName": "33 Junction Road", "address.city": "Archway", "address.postCode": "N19 5QT", "address.country": "GB", "address.longitude": -0.134746552, "address.latitude": 51.56459483, "address.phoneNumber": "02038898493" }, "geometry": { "type": "Point", "coordinates": [ -0.134746552, 51.56459483 ] } },
{ "type": "Feature", "properties": { "shopCode": 2271, "shopName": "Barnet, 134 High St", "priceListId": 10, "address.houseNumberOrName": null, "address.streetName": "134 High Street", "address.city": "Barnet", "address.postCode": "EN5 5XQ", "address.country": "GB", "address.longitude": -0.201549167, "address.latitude": 51.6550799, "address.phoneNumber": "02038898565" }, "geometry": { "type": "Point", "coordinates": [ -0.201549167, 51.6550799 ] } },
{ "type": "Feature", "properties": { "shopCode": 598, "shopName": "Chepstow, 20 High St", "priceListId": 10, "address.houseNumberOrName": null, "address.streetName": "20 High Street", "address.city": "Chepstow", "address.postCode": "NP16 5LQ", "address.country": "GB", "address.longitude": -2.674985067, "address.latitude": 51.64179034, "address.phoneNumber": "01291441479" }, "geometry": { "type": "Point", "coordinates": [ -2.674985067, 51.64179034 ] } },
{ "type": "Feature", "properties": { "shopCode": 1790, "shopName": "Cardiff, U5 St Davids SC", "priceListId": 10, "address.houseNumberOrName": "U5 St Davids Shopping Centre", "address.streetName": "Town Wall", "address.city": "Cardiff", "address.postCode": "CF10 2DQ", "address.country": "GB", "address.longitude": -3.177101372, "address.latitude": 51.48060343, "address.phoneNumber": "02920032663" }, "geometry": { "type": "Point", "coordinates": [ -3.177101372, 51.48060343 ] } },
{ "type": "Feature", "properties": { "shopCode": 1872, "shopName": "Ashby De La Zouch, 25 Market Pl", "priceListId": 10, "address.houseNumberOrName": null, "address.streetName": "25 Market Place", "address.city": "Ashby De La Zouch", "address.postCode": "LE65 1AF", "address.country": "GB", "address.longitude": -1.472399448, "address.latitude": 52.74696978, "address.phoneNumber": "01530441291" }, "geometry": { "type": "Point", "coordinates": [ -1.472399448, 52.74696978 ] } },
{ "type": "Feature", "properties": { "shopCode": 2069, "shopName": "Preston, U4 Tulkth Mill RP, Blackpool Rd", "priceListId": 10, "address.houseNumberOrName": "U4 Tulketh Mill Retail Park", "address.streetName": "Blackpool Road", "address.city": "Preston", "address.postCode": "PR2 2DZ", "address.country": "GB", "address.longitude": -2.723644224, "address.latitude": 53.77190543, "address.phoneNumber": "01772288533" }, "geometry": { "type": "Point", "coordinates": [ -2.723644224, 53.77190543 ] } },
{ "type": "Feature", "properties": { "shopCode": 2295, "shopName": "Burnley, Trafalgar St", "priceListId": 10, "address.houseNumberOrName": null, "address.streetName": "Trafalgar Street", "address.city": "Burnley", "address.postCode": "BB11 1TQ", "address.country": "GB", "address.longitude": -2.250543483, "address.latitude": 53.78776709, "address.phoneNumber": "01282502694" }, "geometry": { "type": "Point", "coordinates": [ -2.250543483, 53.78776709 ] } },
{ "type": "Feature", "properties": { "shopCode": 3785, "shopName": "Huddersfield, Leeds Road RP", "priceListId": 10, "address.houseNumberOrName": "UC Leeds Road Retail Park", "address.streetName": null, "address.city": "Huddersfield", "address.postCode": "HD1 6PF", "address.country": "GB", "address.longitude": -1.769194865, "address.latitude": 53.65752443, "address.phoneNumber": "01484502966" }, "geometry": { "type": "Point", "coordinates": [ -1.769194865, 53.65752443 ] } },
{ "type": "Feature", "properties": { "shopCode": 2290, "shopName": "Cheltenham, 219 High St", "priceListId": 10, "address.houseNumberOrName": null, "address.streetName": "219 High Street", "address.city": "Cheltenham", "address.postCode": "GL50 3HH", "address.country": "GB", "address.longitude": -2.075410348, "address.latitude": 51.9016624, "address.phoneNumber": "01242439235" }, "geometry": { "type": "Point", "coordinates": [ -2.075410348, 51.9016624 ] } },
{ "type": "Feature", "properties": { "shopCode": 3510, "shopName": "Ystradgynlais, 34 Heol Eglwys", "priceListId": 10, "address.houseNumberOrName": null, "address.streetName": "34 Heol Eglwys", "address.city": "Ystradgynlais", "address.postCode": "SA9 1NS", "address.country": "GB", "address.longitude": -3.758482059, "address.latitude": 51.77744173, "address.phoneNumber": "01639500997" }, "geometry": { "type": "Point", "coordinates": [ -3.758482059, 51.77744173 ] } },
{ "type": "Feature", "properties": { "shopCode": 3527, "shopName": "Telford, UA4 Stafford Park 4", "priceListId": 10, "address.houseNumberOrName": "UA4 Stafford Park", "address.streetName": "Stafford Park 4", "address.city": "Telford", "address.postCode": "TF3 3BA", "address.country": "GB", "address.longitude": -2.423779697, "address.latitude": 52.67634457, "address.phoneNumber": "01952947968" }, "geometry": { "type": "Point", "coordinates": [ -2.423779697, 52.67634457 ] } },
{ "type": "Feature", "properties": { "shopCode": 3560, "shopName": "Birmingham, U54 Cuckoo TP", "priceListId": 10, "address.houseNumberOrName": "U54 Cuckoo Trading Park", "address.streetName": "Cuckoo Road", "address.city": "Aston", "address.postCode": "B7 5SY", "address.country": "GB", "address.longitude": -1.863485419, "address.latitude": 52.50581224, "address.phoneNumber": "01216612588" }, "geometry": { "type": "Point", "coordinates": [ -1.863485419, 52.50581224 ] } },
{ "type": "Feature", "properties": { "shopCode": 1918, "shopName": "Thornaby, U2 The Pavillion SC", "priceListId": 10, "address.houseNumberOrName": "U2 Pavillion Shopping Centre", "address.streetName": null, "address.city": "Thornaby", "address.postCode": "TS17 9FD", "address.country": "GB", "address.longitude": -1.290767457, "address.latitude": 54.53908401, "address.phoneNumber": "01642548212" }, "geometry": { "type": "Point", "coordinates": [ -1.290767457, 54.53908401 ] } },
{ "type": "Feature", "properties": { "shopCode": 3793, "shopName": "Sunderland, 18 Fawcett St", "priceListId": 10, "address.houseNumberOrName": null, "address.streetName": "18 Fawcett Street", "address.city": "Sunderland", "address.postCode": "SR1 1RH", "address.country": "GB", "address.longitude": -1.38153433, "address.latitude": 54.90619365, "address.phoneNumber": "01915946789" }, "geometry": { "type": "Point", "coordinates": [ -1.38153433, 54.90619365 ] } },
{ "type": "Feature", "properties": { "shopCode": 3818, "shopName": "Haddington, 29 Market St", "priceListId": 10, "address.houseNumberOrName": null, "address.streetName": "29 Market Street", "address.city": "Haddington", "address.postCode": "EH41 3JE", "address.country": "GB", "address.longitude": -2.777547946, "address.latitude": 55.95586924, "address.phoneNumber": "01620670400" }, "geometry": { "type": "Point", "coordinates": [ -2.777547946, 55.95586924 ] } },
{ "type": "Feature", "properties": { "shopCode": 5099, "shopName": "Bearsden, 124 Drymen Rd", "priceListId": 10, "address.houseNumberOrName": null, "address.streetName": "124 Drymen Road", "address.city": "Bearsden", "address.postCode": "G61 3RB", "address.country": "GB", "address.longitude": -4.334105911, "address.latitude": 55.92019545, "address.phoneNumber": "01417267434" }, "geometry": { "type": "Point", "coordinates": [ -4.334105911, 55.92019545 ] } },
{ "type": "Feature", "properties": { "shopCode": 262, "shopName": "Sheffield, 31 Bellhouse Rd", "priceListId": 10, "address.houseNumberOrName": null, "address.streetName": "31A Bellhouse Road", "address.city": "Firth Park", "address.postCode": "S5 6HJ", "address.country": "GB", "address.longitude": -1.447293714, "address.latitude": 53.41874666, "address.phoneNumber": "01143214011" }, "geometry": { "type": "Point", "coordinates": [ -1.447293714, 53.41874666 ] } },
{ "type": "Feature", "properties": { "shopCode": 431, "shopName": "Salford, 104 Mather Way", "priceListId": 10, "address.houseNumberOrName": "Salford Shopping Centre", "address.streetName": "104 Mather Way", "address.city": "Salford", "address.postCode": "M6 5HU", "address.country": "GB", "address.longitude": -2.287046735, "address.latitude": 53.48940309, "address.phoneNumber": "01618419197" }, "geometry": { "type": "Point", "coordinates": [ -2.287046735, 53.48940309 ] } },
{ "type": "Feature", "properties": { "shopCode": 2163, "shopName": "Liverpool, 2A Catharine St", "priceListId": 10, "address.houseNumberOrName": null, "address.streetName": "2A Catharine Street", "address.city": "Liverpool", "address.postCode": "L8 7NL", "address.country": "GB", "address.longitude": -2.967839288, "address.latitude": 53.4008118, "address.phoneNumber": "01513328215" }, "geometry": { "type": "Point", "coordinates": [ -2.967839288, 53.4008118 ] } },
{ "type": "Feature", "properties": { "shopCode": 2214, "shopName": "Lincoln, U4 Brant Rd SC", "priceListId": 10, "address.houseNumberOrName": "U4 Brant Road Shopping Centre", "address.streetName": "Brant Road", "address.city": "Lincoln", "address.postCode": "LN5 9TR", "address.country": "GB", "address.longitude": -0.557011055, "address.latitude": 53.19114098, "address.phoneNumber": "01522304032" }, "geometry": { "type": "Point", "coordinates": [ -0.557011055, 53.19114098 ] } },
{ "type": "Feature", "properties": { "shopCode": 2239, "shopName": "Netherfield, U1 Victoria BP", "priceListId": 10, "address.houseNumberOrName": "Victoria Retail Park", "address.streetName": null, "address.city": "Netherfield", "address.postCode": "NG4 2PE", "address.country": "GB", "address.longitude": -1.067472205, "address.latitude": 52.96213558, "address.phoneNumber": "01158226641" }, "geometry": { "type": "Point", "coordinates": [ -1.067472205, 52.96213558 ] } },
{ "type": "Feature", "properties": { "shopCode": 2292, "shopName": "Chester, 9 Frodsham St", "priceListId": 10, "address.houseNumberOrName": null, "address.streetName": "9 Frodsham Street", "address.city": "Chester", "address.postCode": "CH1 3JJ", "address.country": "GB", "address.longitude": -2.888504735, "address.latitude": 53.19165276, "address.phoneNumber": "01244918741" }, "geometry": { "type": "Point", "coordinates": [ -2.888504735, 53.19165276 ] } },
{ "type": "Feature", "properties": { "shopCode": 799, "shopName": "Kiddminster, U1 Swan SC", "priceListId": 10, "address.houseNumberOrName": "Swan Centre", "address.streetName": "19 Bull Ring", "address.city": "Kidderminster", "address.postCode": "DY10 2AZ", "address.country": "GB", "address.longitude": -2.249021302, "address.latitude": 52.38824036, "address.phoneNumber": "01562541073" }, "geometry": { "type": "Point", "coordinates": [ -2.249021302, 52.38824036 ] } },
{ "type": "Feature", "properties": { "shopCode": 5058, "shopName": "Nailsea, 16 Colliers Wlk", "priceListId": 10, "address.houseNumberOrName": null, "address.streetName": "16 Colliers Walk", "address.city": "Nailsea", "address.postCode": "BS48 1RG", "address.country": "GB", "address.longitude": -2.75892, "address.latitude": 51.43286, "address.phoneNumber": "01275401854" }, "geometry": { "type": "Point", "coordinates": [ -2.75892, 51.43286 ] } },
{ "type": "Feature", "properties": { "shopCode": 5211, "shopName": "Newport, U4 Audley Avenue RP", "priceListId": 10, "address.houseNumberOrName": "U4 Audley Avenue Retail Park", "address.streetName": null, "address.city": "Newport", "address.postCode": "TF10 7BX", "address.country": "GB", "address.longitude": -2.361216441, "address.latitude": 52.76314553, "address.phoneNumber": "01952947974" }, "geometry": { "type": "Point", "coordinates": [ -2.361216441, 52.76314553 ] } },
{ "type": "Feature", "properties": { "shopCode": 1751, "shopName": "Bristol, U8 Peterson Ave", "priceListId": 10, "address.houseNumberOrName": "U8", "address.streetName": "Peterson Avenue", "address.city": "Hartcliffe", "address.postCode": "BS13 0BE", "address.country": "GB", "address.longitude": -2.598242571, "address.latitude": 51.40479109, "address.phoneNumber": "01174544425" }, "geometry": { "type": "Point", "coordinates": [ -2.598242571, 51.40479109 ] } },
{ "type": "Feature", "properties": { "shopCode": 583, "shopName": "Caerphilly, 47 Cardiff Rd", "priceListId": 10, "address.houseNumberOrName": null, "address.streetName": "47 Cardiff Road", "address.city": "Caerphilly", "address.postCode": "CF83 1FP", "address.country": "GB", "address.longitude": -3.220435161, "address.latitude": 51.57379033, "address.phoneNumber": "02920032695" }, "geometry": { "type": "Point", "coordinates": [ -3.220435161, 51.57379033 ] } },
{ "type": "Feature", "properties": { "shopCode": 507, "shopName": "Glasgow, The Forge SC", "priceListId": 10, "address.houseNumberOrName": "U39 The Forge Shopping Centre", "address.streetName": "East Mall", "address.city": "Glasgow", "address.postCode": "G31 4EB", "address.country": "GB", "address.longitude": -4.199821884, "address.latitude": 55.85344117, "address.phoneNumber": "01417267390" }, "geometry": { "type": "Point", "coordinates": [ -4.199821884, 55.85344117 ] } },
{ "type": "Feature", "properties": { "shopCode": 1271, "shopName": "Sheffield, 21 Market Pl", "priceListId": 10, "address.houseNumberOrName": null, "address.streetName": "21 Market Place", "address.city": "Sheffield", "address.postCode": "S1 2GH", "address.country": "GB", "address.longitude": -1.466255255, "address.latitude": 53.38349312, "address.phoneNumber": "01143214042" }, "geometry": { "type": "Point", "coordinates": [ -1.466255255, 53.38349312 ] } },
{ "type": "Feature", "properties": { "shopCode": 1770, "shopName": "Bradford, U5 The Parkside CTR", "priceListId": 10, "address.houseNumberOrName": "U5 The Parkside Centre", "address.streetName": "Keighley Road", "address.city": "Bradford", "address.postCode": "BD9 4JR", "address.country": "GB", "address.longitude": -1.773527716, "address.latitude": 53.81649703, "address.phoneNumber": "01274957621" }, "geometry": { "type": "Point", "coordinates": [ -1.773527716, 53.81649703 ] } },
{ "type": "Feature", "properties": { "shopCode": 537, "shopName": "Liverpool, 17 Castle St", "priceListId": 10, "address.houseNumberOrName": null, "address.streetName": "17 Castle Street", "address.city": "Liverpool", "address.postCode": "L2 4SX", "address.country": "GB", "address.longitude": -2.990809539, "address.latitude": 53.40656039, "address.phoneNumber": "01513328186" }, "geometry": { "type": "Point", "coordinates": [ -2.990809539, 53.40656039 ] } },
{ "type": "Feature", "properties": { "shopCode": 810, "shopName": "Lincoln 23 Bailgate", "priceListId": 10, "address.houseNumberOrName": null, "address.streetName": "23 Bailgate", "address.city": "Lincoln", "address.postCode": "LN1 3AP", "address.country": "GB", "address.longitude": -0.53856777, "address.latitude": 53.23584198, "address.phoneNumber": "01522304028" }, "geometry": { "type": "Point", "coordinates": [ -0.53856777, 53.23584198 ] } },
{ "type": "Feature", "properties": { "shopCode": 1070, "shopName": "Carnforth, 11 Market St", "priceListId": 10, "address.houseNumberOrName": null, "address.streetName": "11 Market Street", "address.city": "Carnforth", "address.postCode": "LA5 9JX", "address.country": "GB", "address.longitude": -2.769097719, "address.latitude": 54.1289369, "address.phoneNumber": "01524917191" }, "geometry": { "type": "Point", "coordinates": [ -2.769097719, 54.1289369 ] } },
{ "type": "Feature", "properties": { "shopCode": 4916, "shopName": "New Milton, 9 Old Grn Pde,ï¿½Christch Rd", "priceListId": 10, "address.houseNumberOrName": "Old Green Parade", "address.streetName": "9 Christchurch Road", "address.city": "New Milton", "address.postCode": "BH25 6QA", "address.country": "GB", "address.longitude": -1.664534782, "address.latitude": 50.74726925, "address.phoneNumber": "01425201993" }, "geometry": { "type": "Point", "coordinates": [ -1.664534782, 50.74726925 ] } },
{ "type": "Feature", "properties": { "shopCode": 3893, "shopName": "London, U1 London Victoria Coach Stn", "priceListId": 19, "address.houseNumberOrName": "U1 London Victoria Coach Station", "address.streetName": "164 Buckingham Palace Road", "address.city": "London", "address.postCode": "SW1W 9TP", "address.country": "GB", "address.longitude": -0.148310277, "address.latitude": 51.4923588, "address.phoneNumber": "02038898526" }, "geometry": { "type": "Point", "coordinates": [ -0.148310277, 51.4923588 ] } },
{ "type": "Feature", "properties": { "shopCode": 3881, "shopName": "Lowestoft, U5C Gateway RP", "priceListId": 10, "address.houseNumberOrName": "U5C Gateway Retail Park", "address.streetName": null, "address.city": "Lowestoft", "address.postCode": "NR33 7NG", "address.country": "GB", "address.longitude": 1.724130526, "address.latitude": 52.44647889, "address.phoneNumber": "01502441095" }, "geometry": { "type": "Point", "coordinates": [ 1.724130526, 52.44647889 ] } },
{ "type": "Feature", "properties": { "shopCode": 5142, "shopName": "South Oxhey, 6 Station Approach", "priceListId": 10, "address.houseNumberOrName": null, "address.streetName": "6 Station Approach", "address.city": "South Oxhey", "address.postCode": "WD19 7DT", "address.country": "GB", "address.longitude": -0.386654998, "address.latitude": 51.62842933, "address.phoneNumber": "02038898564" }, "geometry": { "type": "Point", "coordinates": [ -0.386654998, 51.62842933 ] } },
{ "type": "Feature", "properties": { "shopCode": 2028, "shopName": "Outlet: Howdon, 18 Tynemouth Rd", "priceListId": 10, "address.houseNumberOrName": null, "address.streetName": "18 Tynemouth Road", "address.city": "Howdon", "address.postCode": "NE28 0LF", "address.country": "GB", "address.longitude": -1.502227394, "address.latitude": 54.99661312, "address.phoneNumber": "01913232889" }, "geometry": { "type": "Point", "coordinates": [ -1.502227394, 54.99661312 ] } },
{ "type": "Feature", "properties": { "shopCode": 2111, "shopName": "Hartlepool, U2 Powlett Rd", "priceListId": 10, "address.houseNumberOrName": "U2", "address.streetName": "Powlett Road", "address.city": "Hartlepool", "address.postCode": "TS24 8NA", "address.country": "GB", "address.longitude": -1.220618293, "address.latitude": 54.69872364, "address.phoneNumber": "01429801236" }, "geometry": { "type": "Point", "coordinates": [ -1.220618293, 54.69872364 ] } },
{ "type": "Feature", "properties": { "shopCode": 463, "shopName": "Wythenshawe, U7 The Birtles", "priceListId": 10, "address.houseNumberOrName": "U7", "address.streetName": "18 The Birtles", "address.city": "Wythenshawe", "address.postCode": "M22 5RF", "address.country": "GB", "address.longitude": -2.262362621, "address.latitude": 53.3804102, "address.phoneNumber": "01618419172" }, "geometry": { "type": "Point", "coordinates": [ -2.262362621, 53.3804102 ] } },
{ "type": "Feature", "properties": { "shopCode": 1967, "shopName": "Halifax, Pellon Lane SS", "priceListId": 10, "address.houseNumberOrName": "Pellon Lane Service Station", "address.streetName": "1", "address.city": "Halifax", "address.postCode": "HX1 5RL", "address.country": "GB", "address.longitude": -1.875280475, "address.latitude": 53.72695636, "address.phoneNumber": "01422412217" }, "geometry": { "type": "Point", "coordinates": [ -1.875280475, 53.72695636 ] } },
{ "type": "Feature", "properties": { "shopCode": 1987, "shopName": "Rhyl, 73 High St", "priceListId": 10, "address.houseNumberOrName": null, "address.streetName": "73 High Street", "address.city": "Rhyl", "address.postCode": "LL18 1TH", "address.country": "GB", "address.longitude": -3.489880814, "address.latitude": 53.32080581, "address.phoneNumber": "01745771269" }, "geometry": { "type": "Point", "coordinates": [ -3.489880814, 53.32080581 ] } },
{ "type": "Feature", "properties": { "shopCode": 1368, "shopName": "Loughborough, 5 Market St", "priceListId": 10, "address.houseNumberOrName": null, "address.streetName": "5 Market Street", "address.city": "Loughborough", "address.postCode": "LE11 3EP", "address.country": "GB", "address.longitude": -1.20732978, "address.latitude": 52.77115358, "address.phoneNumber": "01509272031" }, "geometry": { "type": "Point", "coordinates": [ -1.20732978, 52.77115358 ] } },
{ "type": "Feature", "properties": { "shopCode": 1390, "shopName": "Solihull, 33 High St", "priceListId": 10, "address.houseNumberOrName": null, "address.streetName": "33 High Street", "address.city": "Solihull", "address.postCode": "B91 3SJ", "address.country": "GB", "address.longitude": -1.778659332, "address.latitude": 52.41367553, "address.phoneNumber": "01216612722" }, "geometry": { "type": "Point", "coordinates": [ -1.778659332, 52.41367553 ] } },
{ "type": "Feature", "properties": { "shopCode": 1458, "shopName": "Birmingham, U6 Cherry St", "priceListId": 10, "address.houseNumberOrName": "U6", "address.streetName": "Cherry Street", "address.city": "Birmingham", "address.postCode": "B2 5AL", "address.country": "GB", "address.longitude": -1.897366957, "address.latitude": 52.48052424, "address.phoneNumber": "01216612720" }, "geometry": { "type": "Point", "coordinates": [ -1.897366957, 52.48052424 ] } },
{ "type": "Feature", "properties": { "shopCode": 2037, "shopName": "Cardiff, 39 Wellfield Rd", "priceListId": 10, "address.houseNumberOrName": null, "address.streetName": "39 Wellfield Road", "address.city": "Cardiff", "address.postCode": "CF24 3PA", "address.country": "GB", "address.longitude": -3.165532668, "address.latitude": 51.49548332, "address.phoneNumber": "02920032673" }, "geometry": { "type": "Point", "coordinates": [ -3.165532668, 51.49548332 ] } },
{ "type": "Feature", "properties": { "shopCode": 3615, "shopName": "Kettering, U14 The Mall, Newlands SC", "priceListId": 10, "address.houseNumberOrName": "U14 Newlands Shopping Centre", "address.streetName": "The Mall", "address.city": "Kettering", "address.postCode": "NN16 8JL", "address.country": "GB", "address.longitude": -0.727396348, "address.latitude": 52.40145513, "address.phoneNumber": "01536212727" }, "geometry": { "type": "Point", "coordinates": [ -0.727396348, 52.40145513 ] } },
{ "type": "Feature", "properties": { "shopCode": 4981, "shopName": "Oldbury, U14 Oldbury Green RP", "priceListId": 10, "address.houseNumberOrName": "U14 Oldbury Green Retail Park", "address.streetName": null, "address.city": "Oldbury", "address.postCode": "B69 3DD", "address.country": "GB", "address.longitude": -2.021981002, "address.latitude": 52.50431275, "address.phoneNumber": "01216612687" }, "geometry": { "type": "Point", "coordinates": [ -2.021981002, 52.50431275 ] } },
{ "type": "Feature", "properties": { "shopCode": 188, "shopName": "Glasgow, 28 West Nile St", "priceListId": 10, "address.houseNumberOrName": null, "address.streetName": "28 West Nile Street", "address.city": "Glasgow", "address.postCode": "G1 2PF", "address.country": "GB", "address.longitude": -4.255119218, "address.latitude": 55.86107819, "address.phoneNumber": "01417267365" }, "geometry": { "type": "Point", "coordinates": [ -4.255119218, 55.86107819 ] } },
{ "type": "Feature", "properties": { "shopCode": 1488, "shopName": "Newcastle, Airport", "priceListId": 19, "address.houseNumberOrName": null, "address.streetName": "Newcastle International Airport", "address.city": "Woolsington", "address.postCode": "NE13 8BZ", "address.country": "GB", "address.longitude": -1.709798, "address.latitude": 55.038001, "address.phoneNumber": "01913232915" }, "geometry": { "type": "Point", "coordinates": [ -1.709798, 55.038001 ] } },
{ "type": "Feature", "properties": { "shopCode": 5268, "shopName": "Newcastle, Sandy Lane Drive Thru", "priceListId": 15, "address.houseNumberOrName": "Sandy Lane Drive Thru", "address.streetName": "Sandy Lane", "address.city": "North Gosforth", "address.postCode": "NE13 6PE", "address.country": "GB", "address.longitude": -1.595996429, "address.latitude": 55.04000208, "address.phoneNumber": "01913232890" }, "geometry": { "type": "Point", "coordinates": [ -1.595996429, 55.04000208 ] } },
{ "type": "Feature", "properties": { "shopCode": 5296, "shopName": "Edinburgh, U7F Fort Kinnaird RP", "priceListId": 10, "address.houseNumberOrName": "U7F Fort Kinnaird Retail Park", "address.streetName": null, "address.city": "Edinburgh", "address.postCode": "EH15 3RD", "address.country": "GB", "address.longitude": -3.103363385, "address.latitude": 55.93433797, "address.phoneNumber": "01312873381" }, "geometry": { "type": "Point", "coordinates": [ -3.103363385, 55.93433797 ] } },
{ "type": "Feature", "properties": { "shopCode": 2062, "shopName": "Debden, 45 The Broadway", "priceListId": 10, "address.houseNumberOrName": null, "address.streetName": "45 The Broadway", "address.city": "Debden", "address.postCode": "IG10 3SP", "address.country": "GB", "address.longitude": 0.08327071, "address.latitude": 51.64779809, "address.phoneNumber": "02038898573" }, "geometry": { "type": "Point", "coordinates": [ 0.08327071, 51.64779809 ] } },
{ "type": "Feature", "properties": { "shopCode": 1543, "shopName": "Elgin, U2271K Elgin IE", "priceListId": 10, "address.houseNumberOrName": "U2271K Elgin Industrial Estate", "address.streetName": "Dunbeath Road", "address.city": "Elgin", "address.postCode": "SN2 8EA", "address.country": "GB", "address.longitude": -1.770475239, "address.latitude": 51.57487801, "address.phoneNumber": "01793224334" }, "geometry": { "type": "Point", "coordinates": [ -1.770475239, 51.57487801 ] } },
{ "type": "Feature", "properties": { "shopCode": 1678, "shopName": "Marlborough, 104 High St", "priceListId": 10, "address.houseNumberOrName": null, "address.streetName": "104 High Street", "address.city": "Marlborough", "address.postCode": "SN8 1LT", "address.country": "GB", "address.longitude": -1.733102591, "address.latitude": 51.41938277, "address.phoneNumber": "01672550354" }, "geometry": { "type": "Point", "coordinates": [ -1.733102591, 51.41938277 ] } },
{ "type": "Feature", "properties": { "shopCode": 1789, "shopName": "Stockton, Preston Farm IE", "priceListId": 10, "address.houseNumberOrName": "U33 Preston Farm Industrial Estate", "address.streetName": "Falcon Court", "address.city": "Stockton on Tees", "address.postCode": "TS18 3TS", "address.country": "GB", "address.longitude": -1.320561069, "address.latitude": 54.54616939, "address.phoneNumber": "01642573612" }, "geometry": { "type": "Point", "coordinates": [ -1.320561069, 54.54616939 ] } },
{ "type": "Feature", "properties": { "shopCode": 1843, "shopName": "Dumbarton, U4 St James RP", "priceListId": 10, "address.houseNumberOrName": "UA St James Retail Park", "address.streetName": "53 Glasgow Road", "address.city": "Dumbarton", "address.postCode": "G82 1RB", "address.country": "GB", "address.longitude": -4.560871607, "address.latitude": 55.94356337, "address.phoneNumber": "01389311227" }, "geometry": { "type": "Point", "coordinates": [ -4.560871607, 55.94356337 ] } },
{ "type": "Feature", "properties": { "shopCode": 5388, "shopName": "Kendal, 8 Stricklandgate", "priceListId": 10, "address.houseNumberOrName": null, "address.streetName": "8 Stricklandgate", "address.city": "Kendal", "address.postCode": "LA9 4ND", "address.country": "GB", "address.longitude": -2.747502536, "address.latitude": 54.32795734, "address.phoneNumber": "01539637355" }, "geometry": { "type": "Point", "coordinates": [ -2.747502536, 54.32795734 ] } },
{ "type": "Feature", "properties": { "shopCode": 421, "shopName": "Telford, Telford SC, 136 Thetford Chase", "priceListId": 10, "address.houseNumberOrName": "The Telford Shopping Centre", "address.streetName": "136 Thetford Chase", "address.city": "Telford", "address.postCode": "TF3 4BQ", "address.country": "GB", "address.longitude": -2.447347, "address.latitude": 52.676272, "address.phoneNumber": "01952947967" }, "geometry": { "type": "Point", "coordinates": [ -2.447347, 52.676272 ] } },
{ "type": "Feature", "properties": { "shopCode": 2141, "shopName": "Bletchley, U1C Beacon RP", "priceListId": 10, "address.houseNumberOrName": "U1C", "address.streetName": "Beacon Retail Park", "address.city": "Bletchley", "address.postCode": "MK1 1BN", "address.country": "GB", "address.longitude": -0.725097301, "address.latitude": 52.00317756, "address.phoneNumber": "01908015393" }, "geometry": { "type": "Point", "coordinates": [ -0.725097301, 52.00317756 ] } },
{ "type": "Feature", "properties": { "shopCode": 3702, "shopName": "Merthyr Tydfil, U6 Beacons Place SC", "priceListId": 10, "address.houseNumberOrName": "U6 Beacon's Place Shopping Centre", "address.streetName": "Merthyr Tydfil", "address.city": "Merthyr Tydfil", "address.postCode": "CF47 8DF", "address.country": "GB", "address.longitude": -3.3779801, "address.latitude": 51.7455039, "address.phoneNumber": "01685701646" }, "geometry": { "type": "Point", "coordinates": [ -3.3779801, 51.7455039 ] } },
{ "type": "Feature", "properties": { "shopCode": 3852, "shopName": "Melksham, U3 Ashville Ctr, Commerce Way", "priceListId": 10, "address.houseNumberOrName": "U3 Ashville Centre", "address.streetName": "Commerce Way", "address.city": "Melksham", "address.postCode": "SN12 6AD", "address.country": "GB", "address.longitude": -2.140384904, "address.latitude": 51.35509171, "address.phoneNumber": "01225234633" }, "geometry": { "type": "Point", "coordinates": [ -2.140384904, 51.35509171 ] } },
{ "type": "Feature", "properties": { "shopCode": 4966, "shopName": "Newton Abbot, U3 Market Wlk SC", "priceListId": 10, "address.houseNumberOrName": "U3 Market Walk Shopping Centre", "address.streetName": null, "address.city": "Newton Abbot", "address.postCode": "TQ12 2RX", "address.country": "GB", "address.longitude": -3.611050343, "address.latitude": 50.53050676, "address.phoneNumber": "01626241226" }, "geometry": { "type": "Point", "coordinates": [ -3.611050343, 50.53050676 ] } },
{ "type": "Feature", "properties": { "shopCode": 1268, "shopName": "Middlesbrough, 12 Gilkes St", "priceListId": 10, "address.houseNumberOrName": null, "address.streetName": "12/14 Gilkes Street", "address.city": "Middlesbrough", "address.postCode": "TS1 5ET", "address.country": "GB", "address.longitude": -1.238041, "address.latitude": 54.575485, "address.phoneNumber": "01642424875" }, "geometry": { "type": "Point", "coordinates": [ -1.238041, 54.575485 ] } },
{ "type": "Feature", "properties": { "shopCode": 1638, "shopName": "Workington, Washington Square SC", "priceListId": 10, "address.houseNumberOrName": "Washington Square Shopping Centre", "address.streetName": "2 Campbell Savours Way", "address.city": "Workington", "address.postCode": "CA14 3DZ", "address.country": "GB", "address.longitude": -3.54573, "address.latitude": 54.64344, "address.phoneNumber": "01900510977" }, "geometry": { "type": "Point", "coordinates": [ -3.54573, 54.64344 ] } },
{ "type": "Feature", "properties": { "shopCode": 2389, "shopName": "Musselburgh, 134 High St", "priceListId": 10, "address.houseNumberOrName": null, "address.streetName": "134 High Street", "address.city": "Musselburgh", "address.postCode": "EH21 7EA", "address.country": "GB", "address.longitude": -3.050844141, "address.latitude": 55.94238516, "address.phoneNumber": "01312873370" }, "geometry": { "type": "Point", "coordinates": [ -3.050844141, 55.94238516 ] } },
{ "type": "Feature", "properties": { "shopCode": 61, "shopName": "Houghton Regis, 3 Bedford Sq", "priceListId": 10, "address.houseNumberOrName": null, "address.streetName": "3 Bedford Square", "address.city": "Houghton Regis", "address.postCode": "LU5 5ES", "address.country": "GB", "address.longitude": -0.51969151, "address.latitude": 51.9048988, "address.phoneNumber": "01582345758" }, "geometry": { "type": "Point", "coordinates": [ -0.51969151, 51.9048988 ] } },
{ "type": "Feature", "properties": { "shopCode": 142, "shopName": "West Ealing, 77 The Broadway", "priceListId": 10, "address.houseNumberOrName": null, "address.streetName": "77 Broadway", "address.city": "West Ealing", "address.postCode": "W13 9BP", "address.country": "GB", "address.longitude": -0.325190901, "address.latitude": 51.50986135, "address.phoneNumber": "02038898599" }, "geometry": { "type": "Point", "coordinates": [ -0.325190901, 51.50986135 ] } },
{ "type": "Feature", "properties": { "shopCode": 912, "shopName": "New Malden, 148 High St", "priceListId": 10, "address.houseNumberOrName": null, "address.streetName": "146/148 High Street", "address.city": "New Malden", "address.postCode": "KT3 4EP", "address.country": "GB", "address.longitude": -0.255370339, "address.latitude": 51.39958189, "address.phoneNumber": "02038898667" }, "geometry": { "type": "Point", "coordinates": [ -0.255370339, 51.39958189 ] } },
{ "type": "Feature", "properties": { "shopCode": 1534, "shopName": "Chelmsford, U5C Interchange", "priceListId": 10, "address.houseNumberOrName": "U5C The Interchange", "address.streetName": "Duke Street", "address.city": "Chelmsford", "address.postCode": "CM1 1GZ", "address.country": "GB", "address.longitude": 0.466485106, "address.latitude": 51.73608081, "address.phoneNumber": "01245947293" }, "geometry": { "type": "Point", "coordinates": [ 0.466485106, 51.73608081 ] } },
{ "type": "Feature", "properties": { "shopCode": 1762, "shopName": "Harlow, Edinburgh Way", "priceListId": 10, "address.houseNumberOrName": "Templefields Industrial Estate", "address.streetName": "5 Mill Hatch", "address.city": "Harlow", "address.postCode": "CM20 2DG", "address.country": "GB", "address.longitude": 0.118265278, "address.latitude": 51.78593584, "address.phoneNumber": "01279214453" }, "geometry": { "type": "Point", "coordinates": [ 0.118265278, 51.78593584 ] } },
{ "type": "Feature", "properties": { "shopCode": 4997, "shopName": "Crawley, Three Bridges Railway Stn", "priceListId": 19, "address.houseNumberOrName": "Three Bridges Railway Station", "address.streetName": "Haslett Avenue", "address.city": "Crawley", "address.postCode": "RH10 1LY", "address.country": "GB", "address.longitude": -0.161636411, "address.latitude": 51.11812391, "address.phoneNumber": "01403332595" }, "geometry": { "type": "Point", "coordinates": [ -0.161636411, 51.11812391 ] } },
{ "type": "Feature", "properties": { "shopCode": 1457, "shopName": "Downham Market, U1 Wales Crt", "priceListId": 10, "address.houseNumberOrName": "U1/2 Wales Court", "address.streetName": null, "address.city": "Downham Market", "address.postCode": "PE38 9JZ", "address.country": "GB", "address.longitude": 0.376654539, "address.latitude": 52.60237149, "address.phoneNumber": "01366310479" }, "geometry": { "type": "Point", "coordinates": [ 0.376654539, 52.60237149 ] } },
{ "type": "Feature", "properties": { "shopCode": 2202, "shopName": "Godalming, 8 High St", "priceListId": 10, "address.houseNumberOrName": null, "address.streetName": "8 High Street", "address.city": "Godalming", "address.postCode": "GU7 1AD", "address.country": "GB", "address.longitude": -0.610567608, "address.latitude": 51.18589796, "address.phoneNumber": "01483931677" }, "geometry": { "type": "Point", "coordinates": [ -0.610567608, 51.18589796 ] } },
{ "type": "Feature", "properties": { "shopCode": 4982, "shopName": "Kirkcaldy, U2 Fife Central RP", "priceListId": 10, "address.houseNumberOrName": "U2 Fife Central Retail Park", "address.streetName": "Chapel Park", "address.city": "Kirkcaldy", "address.postCode": "KY2 6QL", "address.country": "GB", "address.longitude": -3.199774215, "address.latitude": 56.13445546, "address.phoneNumber": "01592407641" }, "geometry": { "type": "Point", "coordinates": [ -3.199774215, 56.13445546 ] } },
{ "type": "Feature", "properties": { "shopCode": 447, "shopName": "Swinton, 30 The Pde", "priceListId": 10, "address.houseNumberOrName": null, "address.streetName": "30 The Parade", "address.city": "Swinton", "address.postCode": "M27 4BH", "address.country": "GB", "address.longitude": -2.338410409, "address.latitude": 53.51238646, "address.phoneNumber": "01618419211" }, "geometry": { "type": "Point", "coordinates": [ -2.338410409, 53.51238646 ] } },
{ "type": "Feature", "properties": { "shopCode": 1382, "shopName": "Leeds, 26 Cross Gates SC", "priceListId": 10, "address.houseNumberOrName": "Crossgates Shopping Centre", "address.streetName": "26/27", "address.city": "Crossgates", "address.postCode": "LS15 8BZ", "address.country": "GB", "address.longitude": -1.450374715, "address.latitude": 53.80668749, "address.phoneNumber": "01135177600" }, "geometry": { "type": "Point", "coordinates": [ -1.450374715, 53.80668749 ] } },
{ "type": "Feature", "properties": { "shopCode": 1413, "shopName": "Huddersfield, U39 Kingsgate SC", "priceListId": 10, "address.houseNumberOrName": "Kingsgate Shopping Centre", "address.streetName": "39", "address.city": "Huddersfield", "address.postCode": "HD1 2QB", "address.country": "GB", "address.longitude": -1.779952867, "address.latitude": 53.64590036, "address.phoneNumber": "01484502967" }, "geometry": { "type": "Point", "coordinates": [ -1.779952867, 53.64590036 ] } },
{ "type": "Feature", "properties": { "shopCode": 1640, "shopName": "Retford, 18A Carolgate", "priceListId": 10, "address.houseNumberOrName": null, "address.streetName": "18A Carolgate", "address.city": "Retford", "address.postCode": "DN22 6BU", "address.country": "GB", "address.longitude": -0.942509228, "address.latitude": 53.32187256, "address.phoneNumber": "01777801102" }, "geometry": { "type": "Point", "coordinates": [ -0.942509228, 53.32187256 ] } },
{ "type": "Feature", "properties": { "shopCode": 1707, "shopName": "Rotherham, U33 Parkgate SP", "priceListId": 10, "address.houseNumberOrName": "U33 Parkgate Shopping Park", "address.streetName": "Stadium Way", "address.city": "Rotherham", "address.postCode": "S60 1TG", "address.country": "GB", "address.longitude": -1.346633592, "address.latitude": 53.44453205, "address.phoneNumber": "01709913520" }, "geometry": { "type": "Point", "coordinates": [ -1.346633592, 53.44453205 ] } },
{ "type": "Feature", "properties": { "shopCode": 1953, "shopName": "Salford, U4 Seaford Rd", "priceListId": 10, "address.houseNumberOrName": "U4", "address.streetName": "Seaford Road", "address.city": "Salford", "address.postCode": "M6 6BA", "address.country": "GB", "address.longitude": -2.272827664, "address.latitude": 53.49624909, "address.phoneNumber": "01618419198" }, "geometry": { "type": "Point", "coordinates": [ -2.272827664, 53.49624909 ] } },
{ "type": "Feature", "properties": { "shopCode": 3551, "shopName": "York Uni, U4 Heslington East Campus", "priceListId": 10, "address.houseNumberOrName": "U4 Heslington East Campus", "address.streetName": "Kimberlow Lane", "address.city": "York", "address.postCode": "YO10 5LA", "address.country": "GB", "address.longitude": -1.029679866, "address.latitude": 53.95049939, "address.phoneNumber": "01904236946" }, "geometry": { "type": "Point", "coordinates": [ -1.029679866, 53.95049939 ] } },
{ "type": "Feature", "properties": { "shopCode": 516, "shopName": "Kingstanding, 625 Kingstanding Rd", "priceListId": 10, "address.houseNumberOrName": null, "address.streetName": "625 Kingstanding Road", "address.city": "Kingstanding", "address.postCode": "B44 9SU", "address.country": "GB", "address.longitude": -1.884183883, "address.latitude": 52.55231278, "address.phoneNumber": "01216612592" }, "geometry": { "type": "Point", "coordinates": [ -1.884183883, 52.55231278 ] } },
{ "type": "Feature", "properties": { "shopCode": 854, "shopName": "Abingdon, 7 Bury St", "priceListId": 10, "address.houseNumberOrName": null, "address.streetName": "7 Bury Street", "address.city": "Abingdon", "address.postCode": "OX14 3QY", "address.country": "GB", "address.longitude": -1.282218655, "address.latitude": 51.67040676, "address.phoneNumber": "01235429411" }, "geometry": { "type": "Point", "coordinates": [ -1.282218655, 51.67040676 ] } },
{ "type": "Feature", "properties": { "shopCode": 937, "shopName": "Wantage, U1 Victoria Cross", "priceListId": 10, "address.houseNumberOrName": "U1/2/4", "address.streetName": "Market Place", "address.city": "Wantage", "address.postCode": "OX12 8AS", "address.country": "GB", "address.longitude": -1.426735027, "address.latitude": 51.58843334, "address.phoneNumber": "01235429413" }, "geometry": { "type": "Point", "coordinates": [ -1.426735027, 51.58843334 ] } },
{ "type": "Feature", "properties": { "shopCode": 1791, "shopName": "Newport, Coedkernew, 3 Lakeside Dr", "priceListId": 10, "address.houseNumberOrName": "Celtic Springs Business Park", "address.streetName": "3 Lakeside Drive", "address.city": "Newport", "address.postCode": "NP10 8BB", "address.country": "GB", "address.longitude": -3.03642517, "address.latitude": 51.55905113, "address.phoneNumber": "01633743293" }, "geometry": { "type": "Point", "coordinates": [ -3.03642517, 51.55905113 ] } },
{ "type": "Feature", "properties": { "shopCode": 1873, "shopName": "Redditch, Washford TP", "priceListId": 10, "address.houseNumberOrName": "Washford Trade Park", "address.streetName": null, "address.city": "Redditch", "address.postCode": "B98 0GZ", "address.country": "GB", "address.longitude": -1.905117752, "address.latitude": 52.28546134, "address.phoneNumber": "01527912812" }, "geometry": { "type": "Point", "coordinates": [ -1.905117752, 52.28546134 ] } },
{ "type": "Feature", "properties": { "shopCode": 1269, "shopName": "Southampton, 101 Above Bar St", "priceListId": 10, "address.houseNumberOrName": null, "address.streetName": "101 Above Bar Street", "address.city": "Southampton", "address.postCode": "SO14 7FG", "address.country": "GB", "address.longitude": -1.404667387, "address.latitude": 50.90620164, "address.phoneNumber": "02382597046" }, "geometry": { "type": "Point", "coordinates": [ -1.404667387, 50.90620164 ] } },
{ "type": "Feature", "properties": { "shopCode": 125, "shopName": "Chadderton, U3A Shopping PCT", "priceListId": 10, "address.houseNumberOrName": "U3A Chadderton Shopping Precinct", "address.streetName": "Middleton Road", "address.city": "Chadderton", "address.postCode": "OL9 0LQ", "address.country": "GB", "address.longitude": -2.140953302, "address.latitude": 53.54576559, "address.phoneNumber": "01618419184" }, "geometry": { "type": "Point", "coordinates": [ -2.140953302, 53.54576559 ] } },
{ "type": "Feature", "properties": { "shopCode": 257, "shopName": "Dewsbury, The Princess Of Wales PCT", "priceListId": 10, "address.houseNumberOrName": "U6 The Princess of Wales Shopping Centre", "address.streetName": null, "address.city": "Dewsbury", "address.postCode": "WF13 1NH", "address.country": "GB", "address.longitude": -1.628620562, "address.latitude": 53.69057017, "address.phoneNumber": "01924667559" }, "geometry": { "type": "Point", "coordinates": [ -1.628620562, 53.69057017 ] } },
{ "type": "Feature", "properties": { "shopCode": 2421, "shopName": "Castleford, 64 Carlton St", "priceListId": 10, "address.houseNumberOrName": null, "address.streetName": "64 Carlton Street", "address.city": "Castleford", "address.postCode": "WF10 1DB", "address.country": "GB", "address.longitude": -1.353030685, "address.latitude": 53.72607024, "address.phoneNumber": "01977803473" }, "geometry": { "type": "Point", "coordinates": [ -1.353030685, 53.72607024 ] } },
{ "type": "Feature", "properties": { "shopCode": 3520, "shopName": "Chelmsley Wood SS, Chester Rd", "priceListId": 15, "address.houseNumberOrName": "Chelmsley Wood Service Station", "address.streetName": "Chester Road", "address.city": "Chelmsley Wood", "address.postCode": "B37 6RD", "address.country": "GB", "address.longitude": -1.738237735, "address.latitude": 52.49019231, "address.phoneNumber": "01216612744" }, "geometry": { "type": "Point", "coordinates": [ -1.738237735, 52.49019231 ] } },
{ "type": "Feature", "properties": { "shopCode": 1919, "shopName": "Tow Law, 47A High St", "priceListId": 10, "address.houseNumberOrName": "U1B", "address.streetName": "47A High Street", "address.city": "Tow Law", "address.postCode": "DL13 4DH", "address.country": "GB", "address.longitude": -1.81499975, "address.latitude": 54.74605916, "address.phoneNumber": "01388311024" }, "geometry": { "type": "Point", "coordinates": [ -1.81499975, 54.74605916 ] } },
{ "type": "Feature", "properties": { "shopCode": 3682, "shopName": "Edinburgh, 2 Shandwick Pl", "priceListId": 10, "address.houseNumberOrName": null, "address.streetName": "2/4 Shandwick Place", "address.city": "Edinburgh", "address.postCode": "EH2 4RN", "address.country": "GB", "address.longitude": -3.208560727, "address.latitude": 55.95015313, "address.phoneNumber": "01312873341" }, "geometry": { "type": "Point", "coordinates": [ -3.208560727, 55.95015313 ] } },
{ "type": "Feature", "properties": { "shopCode": 3819, "shopName": "Stevenston, U3 Ashenyards RP", "priceListId": 10, "address.houseNumberOrName": "U3 Ashenyards Retail Park", "address.streetName": "Stevenston Road", "address.city": "Stevenston", "address.postCode": "KA20 3EG", "address.country": "GB", "address.longitude": -4.731632454, "address.latitude": 55.64894555, "address.phoneNumber": "01294442656" }, "geometry": { "type": "Point", "coordinates": [ -4.731632454, 55.64894555 ] } },
{ "type": "Feature", "properties": { "shopCode": 855, "shopName": "Alton, 56 High St", "priceListId": 10, "address.houseNumberOrName": null, "address.streetName": "56 High Street", "address.city": "Alton", "address.postCode": "GU34 1ET", "address.country": "GB", "address.longitude": -0.976243999, "address.latitude": 51.14842922, "address.phoneNumber": "01420550931" }, "geometry": { "type": "Point", "coordinates": [ -0.976243999, 51.14842922 ] } },
{ "type": "Feature", "properties": { "shopCode": 3507, "shopName": "Newcastle, U2 Wellbar Central", "priceListId": 10, "address.houseNumberOrName": "U2 Wellbar Central", "address.streetName": "36 Gallowgate", "address.city": "Newcastle Upon Tyne", "address.postCode": "NE1 4TD", "address.country": "GB", "address.longitude": -1.619270943, "address.latitude": 54.9739203, "address.phoneNumber": "01913232881" }, "geometry": { "type": "Point", "coordinates": [ -1.619270943, 54.9739203 ] } },
{ "type": "Feature", "properties": { "shopCode": 435, "shopName": "Shaw, 28 Market St", "priceListId": 10, "address.houseNumberOrName": null, "address.streetName": "28 Market Street", "address.city": "Shaw", "address.postCode": "OL2 8NH", "address.country": "GB", "address.longitude": -2.093910913, "address.latitude": 53.57707801, "address.phoneNumber": "01706392782" }, "geometry": { "type": "Point", "coordinates": [ -2.093910913, 53.57707801 ] } },
{ "type": "Feature", "properties": { "shopCode": 724, "shopName": "Leeds, U5 The Light SC, Headrow", "priceListId": 10, "address.houseNumberOrName": "The Light", "address.streetName": "66 The Headrow", "address.city": "Leeds", "address.postCode": "LS1 8EQ", "address.country": "GB", "address.longitude": -1.54638228, "address.latitude": 53.79980135, "address.phoneNumber": "01135177585" }, "geometry": { "type": "Point", "coordinates": [ -1.54638228, 53.79980135 ] } },
{ "type": "Feature", "properties": { "shopCode": 1875, "shopName": "Denaby Main, Hill Top Rd", "priceListId": 10, "address.houseNumberOrName": null, "address.streetName": "Hill Top Road", "address.city": "Denaby Main", "address.postCode": "DN12 4TJ", "address.country": "GB", "address.longitude": -1.255473885, "address.latitude": 53.4913028, "address.phoneNumber": "01709913509" }, "geometry": { "type": "Point", "coordinates": [ -1.255473885, 53.4913028 ] } },
{ "type": "Feature", "properties": { "shopCode": 1897, "shopName": "Altrincham, 54 George St", "priceListId": 10, "address.houseNumberOrName": null, "address.streetName": "54 George Street", "address.city": "Altrincham", "address.postCode": "WA14 1RH", "address.country": "GB", "address.longitude": -2.350218354, "address.latitude": 53.38744266, "address.phoneNumber": "01618419231" }, "geometry": { "type": "Point", "coordinates": [ -2.350218354, 53.38744266 ] } },
{ "type": "Feature", "properties": { "shopCode": 804, "shopName": "Ledbury, 2 High St", "priceListId": 10, "address.houseNumberOrName": null, "address.streetName": "2 High Street", "address.city": "Ledbury", "address.postCode": "HR8 1DS", "address.country": "GB", "address.longitude": -2.422474102, "address.latitude": 52.03706345, "address.phoneNumber": "01531800512" }, "geometry": { "type": "Point", "coordinates": [ -2.422474102, 52.03706345 ] } },
{ "type": "Feature", "properties": { "shopCode": 5095, "shopName": "Derby, U13 Eagle Park, Alfreton Rd", "priceListId": 10, "address.houseNumberOrName": "U13 Eagle Park", "address.streetName": "Alfreton Road", "address.city": "Derby", "address.postCode": "DE21 4AE", "address.country": "GB", "address.longitude": -1.469440863, "address.latitude": 52.93844778, "address.phoneNumber": "01332315393" }, "geometry": { "type": "Point", "coordinates": [ -1.469440863, 52.93844778 ] } },
{ "type": "Feature", "properties": { "shopCode": 1709, "shopName": "Harborne, 83 High St", "priceListId": 10, "address.houseNumberOrName": null, "address.streetName": "83 High Street", "address.city": "Harborne", "address.postCode": "B17 9NR", "address.country": "GB", "address.longitude": -1.946113341, "address.latitude": 52.46006092, "address.phoneNumber": "01216612625" }, "geometry": { "type": "Point", "coordinates": [ -1.946113341, 52.46006092 ] } },
{ "type": "Feature", "properties": { "shopCode": 221, "shopName": "Saltcoats, 29 Dockhead St", "priceListId": 10, "address.houseNumberOrName": null, "address.streetName": "29 Dockhead Street", "address.city": "Saltcoats", "address.postCode": "KA21 5ED", "address.country": "GB", "address.longitude": -4.78707526, "address.latitude": 55.63304396, "address.phoneNumber": "01294442655" }, "geometry": { "type": "Point", "coordinates": [ -4.78707526, 55.63304396 ] } },
{ "type": "Feature", "properties": { "shopCode": 443, "shopName": "Washington, U1 Arndale House SC", "priceListId": 10, "address.houseNumberOrName": null, "address.streetName": "7/8 Victoria Road", "address.city": "Concord", "address.postCode": "NE37 2SW", "address.country": "GB", "address.longitude": -1.522785593, "address.latitude": 54.91301562, "address.phoneNumber": "01914066929" }, "geometry": { "type": "Point", "coordinates": [ -1.522785593, 54.91301562 ] } },
{ "type": "Feature", "properties": { "shopCode": 1341, "shopName": "Wickersley, 236 Bawtry Rd", "priceListId": 10, "address.houseNumberOrName": null, "address.streetName": "236 Bawtry Road", "address.city": "Wickersley", "address.postCode": "S66 1AA", "address.country": "GB", "address.longitude": -1.283696003, "address.latitude": 53.42105651, "address.phoneNumber": "01709913506" }, "geometry": { "type": "Point", "coordinates": [ -1.283696003, 53.42105651 ] } },
{ "type": "Feature", "properties": { "shopCode": 3668, "shopName": "Reading, 38 Market Place", "priceListId": 10, "address.houseNumberOrName": null, "address.streetName": "38 Market Place", "address.city": "Reading", "address.postCode": "RG1 2DE", "address.country": "GB", "address.longitude": -0.969826531, "address.latitude": 51.45554874, "address.phoneNumber": "01182053381" }, "geometry": { "type": "Point", "coordinates": [ -0.969826531, 51.45554874 ] } },
{ "type": "Feature", "properties": { "shopCode": 1198, "shopName": "Scunthorpe, 33 High St", "priceListId": 10, "address.houseNumberOrName": null, "address.streetName": "33 High Street", "address.city": "Scunthorpe", "address.postCode": "DN15 6SB", "address.country": "GB", "address.longitude": -0.645200313, "address.latitude": 53.59206259, "address.phoneNumber": "01724700340" }, "geometry": { "type": "Point", "coordinates": [ -0.645200313, 53.59206259 ] } },
{ "type": "Feature", "properties": { "shopCode": 4903, "shopName": "Harrow, 51 St Anns Rd", "priceListId": 10, "address.houseNumberOrName": null, "address.streetName": "51 St Anns Road", "address.city": "Harrow", "address.postCode": "HA1 1JU", "address.country": "GB", "address.longitude": -0.337429978, "address.latitude": 51.58137357, "address.phoneNumber": "02038898652" }, "geometry": { "type": "Point", "coordinates": [ -0.337429978, 51.58137357 ] } },
{ "type": "Feature", "properties": { "shopCode": 5518, "shopName": "Chepstow, U1 Newport Rd", "priceListId": 10, "address.houseNumberOrName": "U1", "address.streetName": "Newport Rd", "address.city": "Chepstow", "address.postCode": "NP16 5YS", "address.country": "GB", "address.longitude": -2.68359948, "address.latitude": 51.63609927, "address.phoneNumber": "01291441480" }, "geometry": { "type": "Point", "coordinates": [ -2.68359948, 51.63609927 ] } },
{ "type": "Feature", "properties": { "shopCode": 3821, "shopName": "Colchester, 58 St Christopher Rd", "priceListId": 10, "address.houseNumberOrName": null, "address.streetName": "58 St Christopher Road", "address.city": "Colchester", "address.postCode": "CO4 0NB", "address.country": "GB", "address.longitude": 0.929127001, "address.latitude": 51.90297226, "address.phoneNumber": "01206695456" }, "geometry": { "type": "Point", "coordinates": [ 0.929127001, 51.90297226 ] } },
{ "type": "Feature", "properties": { "shopCode": 2404, "shopName": "Cardiff, 2A Park Pl", "priceListId": 10, "address.houseNumberOrName": null, "address.streetName": "2A Park Place", "address.city": "Cardiff", "address.postCode": "CF10 3DP", "address.country": "GB", "address.longitude": -3.174619056, "address.latitude": 51.48276912, "address.phoneNumber": "02920032664" }, "geometry": { "type": "Point", "coordinates": [ -3.174619056, 51.48276912 ] } },
{ "type": "Feature", "properties": { "shopCode": 2033, "shopName": "Maryhill, U8 Maryhill SC", "priceListId": 10, "address.houseNumberOrName": "U8 Maryhill Shopping Centre", "address.streetName": null, "address.city": "Maryhill", "address.postCode": "G20 9SH", "address.country": "GB", "address.longitude": -4.286521866, "address.latitude": 55.88725284, "address.phoneNumber": "01417267436" }, "geometry": { "type": "Point", "coordinates": [ -4.286521866, 55.88725284 ] } },
{ "type": "Feature", "properties": { "shopCode": 587, "shopName": "Sleaford, 42 Southgate", "priceListId": 10, "address.houseNumberOrName": null, "address.streetName": "42 Southgate", "address.city": "Sleaford", "address.postCode": "NG34 7RR", "address.country": "GB", "address.longitude": -0.409716416, "address.latitude": 52.99754778, "address.phoneNumber": "01529400539" }, "geometry": { "type": "Point", "coordinates": [ -0.409716416, 52.99754778 ] } },
{ "type": "Feature", "properties": { "shopCode": 1998, "shopName": "Nottingham, U7 Midland Way RP", "priceListId": 10, "address.houseNumberOrName": "Midland Way Retail Park", "address.streetName": "7 Midland Way", "address.city": "Nottingham", "address.postCode": "NG7 3NY", "address.country": "GB", "address.longitude": -1.18300881, "address.latitude": 52.95597088, "address.phoneNumber": "01158226635" }, "geometry": { "type": "Point", "coordinates": [ -1.18300881, 52.95597088 ] } },
{ "type": "Feature", "properties": { "shopCode": 2026, "shopName": "Manchester, Avro Way", "priceListId": 10, "address.houseNumberOrName": "World Freight Terminal", "address.streetName": "Avro Way", "address.city": "Manchester", "address.postCode": "M90 5PZ", "address.country": "GB", "address.longitude": -2.28826667, "address.latitude": 53.36159571, "address.phoneNumber": "01618419174" }, "geometry": { "type": "Point", "coordinates": [ -2.28826667, 53.36159571 ] } },
{ "type": "Feature", "properties": { "shopCode": 1203, "shopName": "Rugeley, 23 Lower Brook St", "priceListId": 10, "address.houseNumberOrName": null, "address.streetName": "23 Lower Brook Street", "address.city": "Rugeley", "address.postCode": "WS15 2BZ", "address.country": "GB", "address.longitude": -1.935644906, "address.latitude": 52.75971339, "address.phoneNumber": "01889221134" }, "geometry": { "type": "Point", "coordinates": [ -1.935644906, 52.75971339 ] } },
{ "type": "Feature", "properties": { "shopCode": 1392, "shopName": "Kettering, 57 High St", "priceListId": 10, "address.houseNumberOrName": null, "address.streetName": "57 High Street", "address.city": "Kettering", "address.postCode": "NN16 8SY", "address.country": "GB", "address.longitude": -0.728479003, "address.latitude": 52.39948355, "address.phoneNumber": "01536212725" }, "geometry": { "type": "Point", "coordinates": [ -0.728479003, 52.39948355 ] } },
{ "type": "Feature", "properties": { "shopCode": 1514, "shopName": "Kettering, U1 Henson Cl, Telford Way IE", "priceListId": 10, "address.houseNumberOrName": "Telford Way Industrial Estate", "address.streetName": "1 Henson Close", "address.city": "Kettering", "address.postCode": "NN16 8PZ", "address.country": "GB", "address.longitude": -0.739104051, "address.latitude": 52.41193685, "address.phoneNumber": "01536212724" }, "geometry": { "type": "Point", "coordinates": [ -0.739104051, 52.41193685 ] } },
{ "type": "Feature", "properties": { "shopCode": 3812, "shopName": "Shrewsbury, U1 Shrewsbury BP", "priceListId": 10, "address.houseNumberOrName": "U1 Shrewsbury Business Park", "address.streetName": "Plot 30 Anchorage Avenue", "address.city": "Shrewsbury", "address.postCode": "SY2 6LG", "address.country": "GB", "address.longitude": -2.722067857, "address.latitude": 52.69033197, "address.phoneNumber": "01743291665" }, "geometry": { "type": "Point", "coordinates": [ -2.722067857, 52.69033197 ] } },
{ "type": "Feature", "properties": { "shopCode": 3843, "shopName": "Torquay, U20 Union Square SC", "priceListId": 10, "address.houseNumberOrName": "U20/22 Union Square Shopping Centre", "address.streetName": null, "address.city": "Torquay", "address.postCode": "TQ1 3UT", "address.country": "GB", "address.longitude": -3.529231428, "address.latitude": 50.46734204, "address.phoneNumber": "01803222858" }, "geometry": { "type": "Point", "coordinates": [ -3.529231428, 50.46734204 ] } },
{ "type": "Feature", "properties": { "shopCode": 166, "shopName": "Edinburgh, 74 Nicholson St", "priceListId": 10, "address.houseNumberOrName": null, "address.streetName": "74 Nicolson Street", "address.city": "Edinburgh", "address.postCode": "EH8 9DT", "address.country": "GB", "address.longitude": -3.184234684, "address.latitude": 55.94538907, "address.phoneNumber": "01312873379" }, "geometry": { "type": "Point", "coordinates": [ -3.184234684, 55.94538907 ] } },
{ "type": "Feature", "properties": { "shopCode": 1579, "shopName": "Dundee, UL28 Overgate SC", "priceListId": 10, "address.houseNumberOrName": "UL28 Overgate Shopping Centre", "address.streetName": null, "address.city": "Dundee", "address.postCode": "DD1 1UF", "address.country": "GB", "address.longitude": -2.972917778, "address.latitude": 56.4600289, "address.phoneNumber": "01382238177" }, "geometry": { "type": "Point", "coordinates": [ -2.972917778, 56.4600289 ] } },
{ "type": "Feature", "properties": { "shopCode": 640, "shopName": "Barkingside, 75 High St", "priceListId": 10, "address.houseNumberOrName": null, "address.streetName": "75/77A High Street", "address.city": "Barkingside", "address.postCode": "IG6 2AF", "address.country": "GB", "address.longitude": 0.082210773, "address.latitude": 51.59062271, "address.phoneNumber": "02038898585" }, "geometry": { "type": "Point", "coordinates": [ 0.082210773, 51.59062271 ] } },
{ "type": "Feature", "properties": { "shopCode": 996, "shopName": "Kingsbury, 461 Kingsbury Rd", "priceListId": 10, "address.houseNumberOrName": null, "address.streetName": "461 Kingsbury Road", "address.city": "Kingsbury", "address.postCode": "NW9 9DY", "address.country": "GB", "address.longitude": -0.276235599, "address.latitude": 51.5857086, "address.phoneNumber": "02080164001" }, "geometry": { "type": "Point", "coordinates": [ -0.276235599, 51.5857086 ] } },
{ "type": "Feature", "properties": { "shopCode": 706, "shopName": "Barnard Castle, 11 Horsemarket", "priceListId": 10, "address.houseNumberOrName": null, "address.streetName": "11 Horsemarket", "address.city": "Barnard Castle", "address.postCode": "DL12 8LY", "address.country": "GB", "address.longitude": -1.923716837, "address.latitude": 54.54388283, "address.phoneNumber": "01833600008" }, "geometry": { "type": "Point", "coordinates": [ -1.923716837, 54.54388283 ] } },
{ "type": "Feature", "properties": { "shopCode": 1794, "shopName": "Hartlepool, U6 Belle Vue Way", "priceListId": 10, "address.houseNumberOrName": "U6", "address.streetName": "Belle Vue Way", "address.city": "Hartlepool", "address.postCode": "TS25 1QF", "address.country": "GB", "address.longitude": -1.211584995, "address.latitude": 54.66937311, "address.phoneNumber": "01429801237" }, "geometry": { "type": "Point", "coordinates": [ -1.211584995, 54.66937311 ] } },
{ "type": "Feature", "properties": { "shopCode": 481, "shopName": "Blackheath, 181 High St", "priceListId": 10, "address.houseNumberOrName": null, "address.streetName": "181 High Street", "address.city": "Blackheath", "address.postCode": "B65 0DU", "address.country": "GB", "address.longitude": -2.03966241, "address.latitude": 52.47562537, "address.phoneNumber": "01216612691" }, "geometry": { "type": "Point", "coordinates": [ -2.03966241, 52.47562537 ] } },
{ "type": "Feature", "properties": { "shopCode": 2096, "shopName": "Brierley Hill, 240 High St", "priceListId": 10, "address.houseNumberOrName": null, "address.streetName": "240 High Street", "address.city": "Brierley Hill", "address.postCode": "DY5 4JD", "address.country": "GB", "address.longitude": -2.122478877, "address.latitude": 52.50102847, "address.phoneNumber": "01384886419" }, "geometry": { "type": "Point", "coordinates": [ -2.122478877, 52.50102847 ] } },
{ "type": "Feature", "properties": { "shopCode": 36, "shopName": "Leam Lane, U2 Fewster Sq", "priceListId": 10, "address.houseNumberOrName": "U2", "address.streetName": "Fewster Square", "address.city": "Leam Lane", "address.postCode": "NE10 8XQ", "address.country": "GB", "address.longitude": -1.545042379, "address.latitude": 54.94070571, "address.phoneNumber": "01914066967" }, "geometry": { "type": "Point", "coordinates": [ -1.545042379, 54.94070571 ] } },
{ "type": "Feature", "properties": { "shopCode": 1639, "shopName": "Hartlepool, The Fens SC", "priceListId": 10, "address.houseNumberOrName": "The Fens Shopping Centre", "address.streetName": "398 Catcote Road", "address.city": "Hartlepool", "address.postCode": "TS25 2LS", "address.country": "GB", "address.longitude": -1.233351719, "address.latitude": 54.65541946, "address.phoneNumber": "01429801238" }, "geometry": { "type": "Point", "coordinates": [ -1.233351719, 54.65541946 ] } },
{ "type": "Feature", "properties": { "shopCode": 2275, "shopName": "Edinburgh, 141 Boswall Parkway", "priceListId": 10, "address.houseNumberOrName": null, "address.streetName": "141 Boswall Parkway", "address.city": "Edinburgh", "address.postCode": "EH5 2LY", "address.country": "GB", "address.longitude": -3.238070843, "address.latitude": 55.97518631, "address.phoneNumber": "01312873362" }, "geometry": { "type": "Point", "coordinates": [ -3.238070843, 55.97518631 ] } },
{ "type": "Feature", "properties": { "shopCode": 658, "shopName": "Southend, 67 High St", "priceListId": 10, "address.houseNumberOrName": null, "address.streetName": "67 High Street", "address.city": "Southend-on-Sea", "address.postCode": "SS1 1HZ", "address.country": "GB", "address.longitude": 0.713525576, "address.latitude": 51.53629719, "address.phoneNumber": "01702417727" }, "geometry": { "type": "Point", "coordinates": [ 0.713525576, 51.53629719 ] } },
{ "type": "Feature", "properties": { "shopCode": 1010, "shopName": "Plumstead, 6 Lakedale Rd", "priceListId": 10, "address.houseNumberOrName": null, "address.streetName": "6 Lakedale Road", "address.city": "Plumstead", "address.postCode": "SE18 1PP", "address.country": "GB", "address.longitude": 0.090979595, "address.latitude": 51.4872389, "address.phoneNumber": "02038898650" }, "geometry": { "type": "Point", "coordinates": [ 0.090979595, 51.4872389 ] } },
{ "type": "Feature", "properties": { "shopCode": 1866, "shopName": "Ashford, 94 High St", "priceListId": 10, "address.houseNumberOrName": null, "address.streetName": "94 High Street", "address.city": "Ashford", "address.postCode": "TN24 8SD", "address.country": "GB", "address.longitude": 0.871165815, "address.latitude": 51.1496961, "address.phoneNumber": "01233222377" }, "geometry": { "type": "Point", "coordinates": [ 0.871165815, 51.1496961 ] } },
{ "type": "Feature", "properties": { "shopCode": 30, "shopName": "Darlington, 68 Skinnergate", "priceListId": 10, "address.houseNumberOrName": null, "address.streetName": "68 Skinnergate", "address.city": "Darlington", "address.postCode": "DL3 7LL", "address.country": "GB", "address.longitude": -1.557327907, "address.latitude": 54.52537946, "address.phoneNumber": "01325524808" }, "geometry": { "type": "Point", "coordinates": [ -1.557327907, 54.52537946 ] } },
{ "type": "Feature", "properties": { "shopCode": 1402, "shopName": "Winchester, 16 High St", "priceListId": 10, "address.houseNumberOrName": null, "address.streetName": "16 High Street", "address.city": "Winchester", "address.postCode": "SO23 9JX", "address.country": "GB", "address.longitude": -1.312683991, "address.latitude": 51.06202565, "address.phoneNumber": "01962670946" }, "geometry": { "type": "Point", "coordinates": [ -1.312683991, 51.06202565 ] } },
{ "type": "Feature", "properties": { "shopCode": 1429, "shopName": "Diss, 22 Mere St", "priceListId": 10, "address.houseNumberOrName": null, "address.streetName": "22/24 Mere Street", "address.city": "Diss", "address.postCode": "IP22 4AD", "address.country": "GB", "address.longitude": 1.109085426, "address.latitude": 52.37489132, "address.phoneNumber": "01379770169" }, "geometry": { "type": "Point", "coordinates": [ 1.109085426, 52.37489132 ] } },
{ "type": "Feature", "properties": { "shopCode": 2148, "shopName": "Watford, 114C High St", "priceListId": 10, "address.houseNumberOrName": null, "address.streetName": "114C High Street", "address.city": "Watford", "address.postCode": "WD17 2BJ", "address.country": "GB", "address.longitude": -0.394736288, "address.latitude": 51.65439401, "address.phoneNumber": "01923609103" }, "geometry": { "type": "Point", "coordinates": [ -0.394736288, 51.65439401 ] } },
{ "type": "Feature", "properties": { "shopCode": 4984, "shopName": "Edinburgh, 2 Harewood Dr", "priceListId": 10, "address.houseNumberOrName": "2", "address.streetName": "Harewood Drive", "address.city": "Edinburgh", "address.postCode": "EH16 4GP", "address.country": "GB", "address.longitude": -3.134482856, "address.latitude": 55.93310281, "address.phoneNumber": "01312873372" }, "geometry": { "type": "Point", "coordinates": [ -3.134482856, 55.93310281 ] } },
{ "type": "Feature", "properties": { "shopCode": 405, "shopName": "Manchester, 16 Gateway House", "priceListId": 10, "address.houseNumberOrName": "Piccadilly Station Approach", "address.streetName": "16 Gateway House", "address.city": "Manchester", "address.postCode": "M1 2GH", "address.country": "GB", "address.longitude": -2.23185, "address.latitude": 53.47774, "address.phoneNumber": "01618419158" }, "geometry": { "type": "Point", "coordinates": [ -2.23185, 53.47774 ] } },
{ "type": "Feature", "properties": { "shopCode": 1161, "shopName": "Cleckheaton, 16 Northgate", "priceListId": 10, "address.houseNumberOrName": null, "address.streetName": "16 Northgate", "address.city": "Cleckheaton", "address.postCode": "BD19 5AE", "address.country": "GB", "address.longitude": -1.713660601, "address.latitude": 53.72447176, "address.phoneNumber": "01274957637" }, "geometry": { "type": "Point", "coordinates": [ -1.713660601, 53.72447176 ] } },
{ "type": "Feature", "properties": { "shopCode": 1492, "shopName": "Manchester, 10 Oxford Rd", "priceListId": 10, "address.houseNumberOrName": null, "address.streetName": "10 Oxford Road", "address.city": "Manchester", "address.postCode": "M1 5QA", "address.country": "GB", "address.longitude": -2.239865498, "address.latitude": 53.47295942, "address.phoneNumber": "01618419155" }, "geometry": { "type": "Point", "coordinates": [ -2.239865498, 53.47295942 ] } },
{ "type": "Feature", "properties": { "shopCode": 1541, "shopName": "Sheffield, 6 Fargate", "priceListId": 10, "address.houseNumberOrName": null, "address.streetName": "6 Fargate", "address.city": "Sheffield", "address.postCode": "S1 2HE", "address.country": "GB", "address.longitude": -1.468793341, "address.latitude": 53.38233757, "address.phoneNumber": "01143214043" }, "geometry": { "type": "Point", "coordinates": [ -1.468793341, 53.38233757 ] } },
{ "type": "Feature", "properties": { "shopCode": 1644, "shopName": "Stretford, U6 Arndale CTR", "priceListId": 10, "address.houseNumberOrName": "U6 Arndale Centre", "address.streetName": "Kingsway Mall", "address.city": "Stretford", "address.postCode": "M32 9BA", "address.country": "GB", "address.longitude": -2.309420144, "address.latitude": 53.44567639, "address.phoneNumber": "01618419222" }, "geometry": { "type": "Point", "coordinates": [ -2.309420144, 53.44567639 ] } },
{ "type": "Feature", "properties": { "shopCode": 1685, "shopName": "Leeds, West Point", "priceListId": 10, "address.houseNumberOrName": "West Point", "address.streetName": "Wellington Street", "address.city": "Leeds", "address.postCode": "LS1 4JY", "address.country": "GB", "address.longitude": -1.553131937, "address.latitude": 53.7963842, "address.phoneNumber": "01135177576" }, "geometry": { "type": "Point", "coordinates": [ -1.553131937, 53.7963842 ] } },
{ "type": "Feature", "properties": { "shopCode": 1964, "shopName": "Barnsley, 5 Eldon Arc", "priceListId": 10, "address.houseNumberOrName": "Eldon Arcade", "address.streetName": "5", "address.city": "Barnsley", "address.postCode": "S70 2JP", "address.country": "GB", "address.longitude": -1.478486883, "address.latitude": 53.55371116, "address.phoneNumber": "01226657652" }, "geometry": { "type": "Point", "coordinates": [ -1.478486883, 53.55371116 ] } },
{ "type": "Feature", "properties": { "shopCode": 3552, "shopName": "York, U2 Clifton Moor RP", "priceListId": 10, "address.houseNumberOrName": "U2 Clifton Moor Retail Park", "address.streetName": "Stirling Road", "address.city": "York", "address.postCode": "YO30 4XZ", "address.country": "GB", "address.longitude": -1.104178108, "address.latitude": 53.99254276, "address.phoneNumber": "01904236951" }, "geometry": { "type": "Point", "coordinates": [ -1.104178108, 53.99254276 ] } },
{ "type": "Feature", "properties": { "shopCode": 529, "shopName": "Nuneaton, U33 Abbeygate CTR", "priceListId": 10, "address.houseNumberOrName": "U33 Abbeygate Shopping Centre", "address.streetName": "24 Harefield Road", "address.city": "Nuneaton", "address.postCode": "CV11 4HD", "address.country": "GB", "address.longitude": -1.467671741, "address.latitude": 52.52387646, "address.phoneNumber": "02475103343" }, "geometry": { "type": "Point", "coordinates": [ -1.467671741, 52.52387646 ] } },
{ "type": "Feature", "properties": { "shopCode": 1888, "shopName": "Risca, 43A Tredegar St", "priceListId": 10, "address.houseNumberOrName": "U1", "address.streetName": "43A Tredegar Street", "address.city": "Risca", "address.postCode": "NP11 6BW", "address.country": "GB", "address.longitude": -3.100966818, "address.latitude": 51.60821246, "address.phoneNumber": "01633743290" }, "geometry": { "type": "Point", "coordinates": [ -3.100966818, 51.60821246 ] } },
{ "type": "Feature", "properties": { "shopCode": 5251, "shopName": "Burton Upon Trent, 2 Cooper Sq SC", "priceListId": 10, "address.houseNumberOrName": "U2/3 Cooper Square Shopping Centre", "address.streetName": null, "address.city": "Burton Upon Trent", "address.postCode": "DE14 1DF", "address.country": "GB", "address.longitude": -1.631870502, "address.latitude": 52.80204075, "address.phoneNumber": "01283241955" }, "geometry": { "type": "Point", "coordinates": [ -1.631870502, 52.80204075 ] } },
{ "type": "Feature", "properties": { "shopCode": 57, "shopName": "Spalding, 8 Hall Pl", "priceListId": 10, "address.houseNumberOrName": null, "address.streetName": "8 Hall Place", "address.city": "Spalding", "address.postCode": "PE11 1SA", "address.country": "GB", "address.longitude": -0.152217694, "address.latitude": 52.78736217, "address.phoneNumber": "01775661123" }, "geometry": { "type": "Point", "coordinates": [ -0.152217694, 52.78736217 ] } },
{ "type": "Feature", "properties": { "shopCode": 249, "shopName": "Leeds, Chapel Allerton, 110 Harrogate Rd", "priceListId": 10, "address.houseNumberOrName": "U8", "address.streetName": "110 Harrogate Road", "address.city": "Chapel Allerton", "address.postCode": "LS7 4NY", "address.country": "GB", "address.longitude": -1.537822606, "address.latitude": 53.82923741, "address.phoneNumber": "01135177603" }, "geometry": { "type": "Point", "coordinates": [ -1.537822606, 53.82923741 ] } },
{ "type": "Feature", "properties": { "shopCode": 3521, "shopName": "Bedford, U19 Harpur SC", "priceListId": 10, "address.houseNumberOrName": "U19 Harpur Shopping Centre", "address.streetName": "Midland Road Mall", "address.city": "Bedford", "address.postCode": "MK40 1TQ", "address.country": "GB", "address.longitude": -0.469291391, "address.latitude": 52.13606217, "address.phoneNumber": "01234237010" }, "geometry": { "type": "Point", "coordinates": [ -0.469291391, 52.13606217 ] } },
{ "type": "Feature", "properties": { "shopCode": 3557, "shopName": "Derby, U2A Ctrl Hall, East St", "priceListId": 10, "address.houseNumberOrName": "U2A Central Hall", "address.streetName": "East Street", "address.city": "Derby", "address.postCode": "DE1 2AF", "address.country": "GB", "address.longitude": -1.474407198, "address.latitude": 52.92146846, "address.phoneNumber": "01332315392" }, "geometry": { "type": "Point", "coordinates": [ -1.474407198, 52.92146846 ] } },
{ "type": "Feature", "properties": { "shopCode": 1949, "shopName": "Kingston Pk, U8 Kingston Pk SC", "priceListId": 10, "address.houseNumberOrName": "U8 Kingston Park Shopping Centre", "address.streetName": "Kingston Park Ave", "address.city": "Kingston Park", "address.postCode": "NE3 2FP", "address.country": "GB", "address.longitude": -1.669045528, "address.latitude": 55.01306193, "address.phoneNumber": "01914061368" }, "geometry": { "type": "Point", "coordinates": [ -1.669045528, 55.01306193 ] } },
{ "type": "Feature", "properties": { "shopCode": 3820, "shopName": "Bangor, 70 Main St", "priceListId": 10, "address.houseNumberOrName": null, "address.streetName": "70/72 Main Street", "address.city": "Bangor", "address.postCode": "BT20 5AE", "address.country": "GB", "address.longitude": -5.668195738, "address.latitude": 54.66137115, "address.phoneNumber": "02891243072" }, "geometry": { "type": "Point", "coordinates": [ -5.668195738, 54.66137115 ] } },
{ "type": "Feature", "properties": { "shopCode": 5086, "shopName": "Glasgow, 1865 Paisley Rd West", "priceListId": 10, "address.houseNumberOrName": null, "address.streetName": "1865 Paisley Road West", "address.city": "Glasgow", "address.postCode": "G52 3SX", "address.country": "GB", "address.longitude": -4.34484726, "address.latitude": 55.84533039, "address.phoneNumber": "01417267418" }, "geometry": { "type": "Point", "coordinates": [ -4.34484726, 55.84533039 ] } },
{ "type": "Feature", "properties": { "shopCode": 5137, "shopName": "Belfast, 52 Botanic Ave", "priceListId": 10, "address.houseNumberOrName": null, "address.streetName": "52/54 Botanic Avenue", "address.city": "Belfast", "address.postCode": "BT7 1JR", "address.country": "GB", "address.longitude": -5.932712375, "address.latitude": 54.587838, "address.phoneNumber": "02890025837" }, "geometry": { "type": "Point", "coordinates": [ -5.932712375, 54.587838 ] } },
{ "type": "Feature", "properties": { "shopCode": 290, "shopName": "Hunslet, U6 Hunslet District CTR", "priceListId": 10, "address.houseNumberOrName": "U6 The Penny Hill Centre", "address.streetName": "Church Street", "address.city": "Hunslet", "address.postCode": "LS10 2AP", "address.country": "GB", "address.longitude": -1.528701594, "address.latitude": 53.77863582, "address.phoneNumber": "01135177605" }, "geometry": { "type": "Point", "coordinates": [ -1.528701594, 53.77863582 ] } },
{ "type": "Feature", "properties": { "shopCode": 556, "shopName": "Wednesbury, 14 Union St", "priceListId": 10, "address.houseNumberOrName": null, "address.streetName": "14 Union Street", "address.city": "Wednesbury", "address.postCode": "WS10 7HD", "address.country": "GB", "address.longitude": -2.020361, "address.latitude": 52.55265, "address.phoneNumber": "01216612640" }, "geometry": { "type": "Point", "coordinates": [ -2.020361, 52.55265 ] } },
{ "type": "Feature", "properties": { "shopCode": 5144, "shopName": "Leicester, 285 Abbey Ln", "priceListId": 10, "address.houseNumberOrName": null, "address.streetName": "285 Abbey Lane", "address.city": "Leicester", "address.postCode": "LE4 5QH", "address.country": "GB", "address.longitude": -1.133264086, "address.latitude": 52.65829186, "address.phoneNumber": "01164785111" }, "geometry": { "type": "Point", "coordinates": [ -1.133264086, 52.65829186 ] } },
{ "type": "Feature", "properties": { "shopCode": 5196, "shopName": "Birmingham, U18B Fox SC, Washwood Hth Rd", "priceListId": 10, "address.houseNumberOrName": "U18B Fox & Goose Shopping Centre", "address.streetName": "Washwood Heath Road", "address.city": "Birmingham", "address.postCode": "B8 2EP", "address.country": "GB", "address.longitude": -1.819225665, "address.latitude": 52.49416922, "address.phoneNumber": "01216612753" }, "geometry": { "type": "Point", "coordinates": [ -1.819225665, 52.49416922 ] } },
{ "type": "Feature", "properties": { "shopCode": 1680, "shopName": "Swansea, U6F Swansea EP", "priceListId": 10, "address.houseNumberOrName": "U6F Swansea Enterprise Park", "address.streetName": "Lion Way", "address.city": "Swansea", "address.postCode": "SA7 9EH", "address.country": "GB", "address.longitude": -3.90861481, "address.latitude": 51.65849966, "address.phoneNumber": "01792001450" }, "geometry": { "type": "Point", "coordinates": [ -3.90861481, 51.65849966 ] } },
{ "type": "Feature", "properties": { "shopCode": 37, "shopName": "Blackheath, 28 Tranquil Vale", "priceListId": 10, "address.houseNumberOrName": null, "address.streetName": "28 Tranquil Vale", "address.city": "Blackheath", "address.postCode": "SE3 0AX", "address.country": "GB", "address.longitude": 0.008950364, "address.latitude": 51.46628134, "address.phoneNumber": "02038898647" }, "geometry": { "type": "Point", "coordinates": [ 0.008950364, 51.46628134 ] } },
{ "type": "Feature", "properties": { "shopCode": 206, "shopName": "Motherwell, 32 Brandon Pde", "priceListId": 10, "address.houseNumberOrName": null, "address.streetName": "32 Brandon Parade East", "address.city": "Motherwell", "address.postCode": "ML1 1LY", "address.country": "GB", "address.longitude": -3.991994786, "address.latitude": 55.79065926, "address.phoneNumber": "01698533319" }, "geometry": { "type": "Point", "coordinates": [ -3.991994786, 55.79065926 ] } },
{ "type": "Feature", "properties": { "shopCode": 475, "shopName": "Norton, 51 High St", "priceListId": 10, "address.houseNumberOrName": null, "address.streetName": "51 High Street", "address.city": "Norton", "address.postCode": "TS20 1AH", "address.country": "GB", "address.longitude": -1.310669178, "address.latitude": 54.58758016, "address.phoneNumber": "01642549255" }, "geometry": { "type": "Point", "coordinates": [ -1.310669178, 54.58758016 ] } },
{ "type": "Feature", "properties": { "shopCode": 1200, "shopName": "Brighouse, 15 Commercial St", "priceListId": 10, "address.houseNumberOrName": null, "address.streetName": "15 Commercial Street", "address.city": "Brighouse", "address.postCode": "HD6 1AF", "address.country": "GB", "address.longitude": -1.78012955, "address.latitude": 53.70227101, "address.phoneNumber": "01484502972" }, "geometry": { "type": "Point", "coordinates": [ -1.78012955, 53.70227101 ] } },
{ "type": "Feature", "properties": { "shopCode": 5439, "shopName": "Launceston, Pennygillam IE, Pennygllm Wy", "priceListId": 10, "address.houseNumberOrName": "Pennygillam Industrial Estate", "address.streetName": "Pennygillam Way", "address.city": "Launceston", "address.postCode": "PL15 7ED", "address.country": "GB", "address.longitude": -4.371006211, "address.latitude": 50.62761711, "address.phoneNumber": "01566700796" }, "geometry": { "type": "Point", "coordinates": [ -4.371006211, 50.62761711 ] } },
{ "type": "Feature", "properties": { "shopCode": 3828, "shopName": "London, 243 Whitechapel Rd", "priceListId": 10, "address.houseNumberOrName": null, "address.streetName": "243 Whitechapel Road", "address.city": "London", "address.postCode": "E1 1DB", "address.country": "GB", "address.longitude": -0.060929509, "address.latitude": 51.51915071, "address.phoneNumber": "02038898482" }, "geometry": { "type": "Point", "coordinates": [ -0.060929509, 51.51915071 ] } },
{ "type": "Feature", "properties": { "shopCode": 5280, "shopName": "Boston, Pilgrim Wy", "priceListId": 10, "address.houseNumberOrName": "Wyberton", "address.streetName": "Pilgrim Way", "address.city": "Boston", "address.postCode": "PE21 7NE", "address.country": "GB", "address.longitude": -0.030595274, "address.latitude": 52.95511793, "address.phoneNumber": "01205334209" }, "geometry": { "type": "Point", "coordinates": [ -0.030595274, 52.95511793 ] } },
{ "type": "Feature", "properties": { "shopCode": 2391, "shopName": "Bedminster, 78 East St", "priceListId": 10, "address.houseNumberOrName": null, "address.streetName": "78 East Street", "address.city": "Bedminster", "address.postCode": "BS3 4JD", "address.country": "GB", "address.longitude": -2.597549012, "address.latitude": 51.44194998, "address.phoneNumber": "01174544427" }, "geometry": { "type": "Point", "coordinates": [ -2.597549012, 51.44194998 ] } },
{ "type": "Feature", "properties": { "shopCode": 2001, "shopName": "Salford, 258 Eccles Old Rd", "priceListId": 10, "address.houseNumberOrName": null, "address.streetName": "258 Eccles Old Road", "address.city": "Salford", "address.postCode": "M6 8HH", "address.country": "GB", "address.longitude": -2.326404324, "address.latitude": 53.4893293, "address.phoneNumber": "01618419195" }, "geometry": { "type": "Point", "coordinates": [ -2.326404324, 53.4893293 ] } },
{ "type": "Feature", "properties": { "shopCode": 2027, "shopName": "Hyde, 14 Clarendon Sq", "priceListId": 10, "address.houseNumberOrName": "14", "address.streetName": "Calrendon Square", "address.city": "Hyde", "address.postCode": "SK14 2QT", "address.country": "GB", "address.longitude": -2.078156032, "address.latitude": 53.45093276, "address.phoneNumber": "01618419228" }, "geometry": { "type": "Point", "coordinates": [ -2.078156032, 53.45093276 ] } },
{ "type": "Feature", "properties": { "shopCode": 1206, "shopName": "Birmingham, 51 Warstone Ln", "priceListId": 10, "address.houseNumberOrName": "U4", "address.streetName": "51 Warstone Lane", "address.city": "Birmingham", "address.postCode": "B18 6NG", "address.country": "GB", "address.longitude": -1.912974669, "address.latitude": 52.48693437, "address.phoneNumber": "01216612762" }, "geometry": { "type": "Point", "coordinates": [ -1.912974669, 52.48693437 ] } },
{ "type": "Feature", "properties": { "shopCode": 1277, "shopName": "Northampton, 51 Abington St", "priceListId": 10, "address.houseNumberOrName": null, "address.streetName": "51 Abington Street", "address.city": "Northampton", "address.postCode": "NN1 2AW", "address.country": "GB", "address.longitude": -0.892370978, "address.latitude": 52.23881042, "address.phoneNumber": "01604213259" }, "geometry": { "type": "Point", "coordinates": [ -0.892370978, 52.23881042 ] } },
{ "type": "Feature", "properties": { "shopCode": 1406, "shopName": "Warminster, U18 Three Horseshoes Wlk", "priceListId": 10, "address.houseNumberOrName": "U18", "address.streetName": "Three Horseshoes Walk", "address.city": "Warminster", "address.postCode": "BA12 9BT", "address.country": "GB", "address.longitude": -2.1799489, "address.latitude": 51.2054004, "address.phoneNumber": "01985800587" }, "geometry": { "type": "Point", "coordinates": [ -2.1799489, 51.2054004 ] } },
{ "type": "Feature", "properties": { "shopCode": 3814, "shopName": "Milton Keynes, Westcroft District Ctr", "priceListId": 10, "address.houseNumberOrName": "U10B Westcroft District Centre", "address.streetName": "Barnsdale Drive", "address.city": "Westcroft", "address.postCode": "MK4 4DD", "address.country": "GB", "address.longitude": -0.794767664, "address.latitude": 52.00450328, "address.phoneNumber": "01908015394" }, "geometry": { "type": "Point", "coordinates": [ -0.794767664, 52.00450328 ] } },